[
  {
    "stationName": "橫龍山",
    "lat": 24.469909,
    "lon": 120.968785,
    "rain_now": 0.0,
    "rain_10min": 0.0,
    "rain_1hr": 0.0,
    "rain_3hr": 0.0,
    "rain_6hr": 0.0,
    "rain_12hr": 0.0,
    "rain_24hr": 0.0,
    "rain_2d": 0.0,
    "rain_3d": 0.0,
    "timestamp_rain": "2025-06-21T14:10:00+08:00",
    "stationId": "01E030"
  },
  {
    "stationName": "梧棲",
    "lat": 24.256003,
    "lon": 120.523381,
    "rain_now": 0.0,
    "rain_10min": 0.0,
    "rain_1hr": 0.0,
    "rain_3hr": 0.0,
    "rain_6hr": 0.0,
    "rain_12hr": 0.0,
    "rain_24hr": 0.0,
    "rain_2d": 0.0,
    "rain_3d": 0.0,
    "timestamp_rain": "2025-06-21T14:10:00+08:00",
    "weather": "晴",
    "visibility": "-99",
    "sunshine_duration": -99.0,
    "wind_dir": 250.0,
    "wind_speed": 6.0,
    "temperature": 29.7,
    "humidity": 78.0,
    "pressure": -99.0,
    "uv_index": -99,
    "peak_gust_speed": 8.8,
    "timestamp_now": "2025-06-21T14:00:00+08:00",
    "stationId": "C0FA30"
  },
  {
    "stationName": "外來吉",
    "lat": 23.529649,
    "lon": 120.739968,
    "rain_now": 0.0,
    "rain_10min": 0.0,
    "rain_1hr": 0.0,
    "rain_3hr": 0.0,
    "rain_6hr": 0.0,
    "rain_12hr": 0.0,
    "rain_24hr": 13.0,
    "rain_2d": 13.0,
    "rain_3d": 38.0,
    "timestamp_rain": "2025-06-21T14:10:00+08:00",
    "stationId": "O1M650"
  },
  {
    "stationName": "松山",
    "lat": 25.048711,
    "lon": 121.550428,
    "temperature": 31.4,
    "humidity": 72.0,
    "pressure": 1004.8,
    "wind_speed": 1.1,
    "wind_dir": 342.0,
    "rain": 0.0,
    "timestamp_weather": "2025-06-21T14:00:00+08:00",
    "rain_now": 0.0,
    "rain_10min": 0.0,
    "rain_1hr": 0.0,
    "rain_3hr": 0.0,
    "rain_6hr": 0.0,
    "rain_12hr": 0.0,
    "rain_24hr": 14.0,
    "rain_2d": 14.0,
    "rain_3d": 14.0,
    "timestamp_rain": "2025-06-21T14:10:00+08:00",
    "stationId": "C0AH70"
  },
  {
    "stationName": "國三N208K",
    "lat": 24.066147,
    "lon": 120.660919,
    "rain_now": 0.0,
    "rain_10min": 0.0,
    "rain_1hr": 0.0,
    "rain_3hr": 0.0,
    "rain_6hr": 0.0,
    "rain_12hr": 0.0,
    "rain_24hr": 0.0,
    "rain_2d": 0.0,
    "rain_3d": 0.0,
    "timestamp_rain": "2025-06-21T14:10:00+08:00",
    "weather": "多雲",
    "visibility": "-99",
    "sunshine_duration": -99.0,
    "wind_dir": 260.0,
    "wind_speed": 2.2,
    "temperature": 32.2,
    "humidity": 74.0,
    "pressure": -99.0,
    "uv_index": -99,
    "peak_gust_speed": 8.1,
    "timestamp_now": "2025-06-21T14:00:00+08:00",
    "stationId": "CAF050"
  },
  {
    "stationName": "國一N013K",
    "lat": 25.066739,
    "lon": 121.628153,
    "rain_now": 0.0,
    "rain_10min": 0.0,
    "rain_1hr": 0.0,
    "rain_3hr": 0.0,
    "rain_6hr": 0.0,
    "rain_12hr": 0.0,
    "rain_24hr": 0.0,
    "rain_2d": 0.0,
    "rain_3d": 0.0,
    "timestamp_rain": "2025-06-21T14:10:00+08:00",
    "weather": "陰",
    "visibility": "-99",
    "sunshine_duration": -99.0,
    "wind_dir": 300.0,
    "wind_speed": 1.8,
    "temperature": 32.2,
    "humidity": 72.0,
    "pressure": -99.0,
    "uv_index": -99,
    "peak_gust_speed": 4.0,
    "timestamp_now": "2025-06-21T14:00:00+08:00",
    "stationId": "CAA010"
  },
  {
    "stationName": "都蘭",
    "lat": 22.87794,
    "lon": 121.226881,
    "rain_now": 0.0,
    "rain_10min": 0.0,
    "rain_1hr": 0.0,
    "rain_3hr": 0.0,
    "rain_6hr": 0.0,
    "rain_12hr": 0.0,
    "rain_24hr": 0.0,
    "rain_2d": 0.0,
    "rain_3d": 0.0,
    "timestamp_rain": "2025-06-21T14:10:00+08:00",
    "stationId": "C1SA70"
  },
  {
    "stationName": "三義",
    "lat": 24.405478,
    "lon": 120.749819,
    "rain_now": 0.0,
    "rain_10min": 0.0,
    "rain_1hr": 0.0,
    "rain_3hr": 0.0,
    "rain_6hr": 0.0,
    "rain_12hr": 0.0,
    "rain_24hr": 0.0,
    "rain_2d": 0.0,
    "rain_3d": 0.0,
    "timestamp_rain": "2025-06-21T14:10:00+08:00",
    "weather": "多雲",
    "visibility": "-99",
    "sunshine_duration": -99.0,
    "wind_dir": 210.0,
    "wind_speed": 1.6,
    "temperature": 28.1,
    "humidity": 80.0,
    "pressure": -99.0,
    "uv_index": -99,
    "peak_gust_speed": 4.9,
    "timestamp_now": "2025-06-21T14:00:00+08:00",
    "stationId": "C2E880"
  },
  {
    "stationName": "白鷺",
    "lat": 22.454275,
    "lon": 120.666219,
    "temperature": 26.2,
    "humidity": 89.0,
    "pressure": 945.7,
    "wind_speed": 0.9,
    "wind_dir": 313.0,
    "rain": 0.0,
    "timestamp_weather": "2025-06-21T14:00:00+08:00",
    "rain_now": 0.0,
    "rain_10min": 0.0,
    "rain_1hr": 0.0,
    "rain_3hr": 0.0,
    "rain_6hr": 0.0,
    "rain_12hr": 0.0,
    "rain_24hr": 0.0,
    "rain_2d": 0.0,
    "rain_3d": 0.0,
    "timestamp_rain": "2025-06-21T14:10:00+08:00",
    "stationId": "C0R820"
  },
  {
    "stationName": "大溪山",
    "lat": 22.478475,
    "lon": 120.943325,
    "temperature": 28.8,
    "humidity": 82.0,
    "pressure": 967.4,
    "wind_speed": 0.5,
    "wind_dir": 69.0,
    "rain": 0.0,
    "timestamp_weather": "2025-06-21T14:00:00+08:00",
    "rain_now": 0.0,
    "rain_10min": 0.0,
    "rain_1hr": 0.0,
    "rain_3hr": 0.0,
    "rain_6hr": 0.0,
    "rain_12hr": 0.0,
    "rain_24hr": 0.0,
    "rain_2d": 0.0,
    "rain_3d": 0.0,
    "timestamp_rain": "2025-06-21T14:10:00+08:00",
    "stationId": "C0S770"
  },
  {
    "stationName": "建山國小",
    "lat": 23.105439,
    "lon": 120.682922,
    "rain_now": 0.0,
    "rain_10min": 0.0,
    "rain_1hr": 0.0,
    "rain_3hr": 0.0,
    "rain_6hr": 0.0,
    "rain_12hr": 0.0,
    "rain_24hr": 4.5,
    "rain_2d": 4.5,
    "rain_3d": 4.5,
    "timestamp_rain": "2025-06-21T14:10:00+08:00",
    "stationId": "81V820"
  },
  {
    "stationName": "廬山",
    "lat": 24.033311,
    "lon": 121.181808,
    "temperature": 26.1,
    "humidity": 65.0,
    "pressure": 848.5,
    "wind_speed": 0.9,
    "wind_dir": 288.0,
    "rain": 0.0,
    "timestamp_weather": "2025-06-21T14:00:00+08:00",
    "rain_now": 0.0,
    "rain_10min": 0.0,
    "rain_1hr": 0.0,
    "rain_3hr": 0.0,
    "rain_6hr": 0.0,
    "rain_12hr": 0.0,
    "rain_24hr": 8.5,
    "rain_2d": 8.5,
    "rain_3d": 8.5,
    "timestamp_rain": "2025-06-21T14:10:00+08:00",
    "stationId": "C0I010"
  },
  {
    "stationName": "花園派出所",
    "lat": 24.646103,
    "lon": 121.151106,
    "rain_now": 0.5,
    "rain_10min": 0.0,
    "rain_1hr": 0.0,
    "rain_3hr": 0.0,
    "rain_6hr": 0.0,
    "rain_12hr": 0.0,
    "rain_24hr": 6.5,
    "rain_2d": 6.5,
    "rain_3d": 8.0,
    "timestamp_rain": "2025-06-21T14:10:00+08:00",
    "stationId": "81D660"
  },
  {
    "stationName": "打鐵坑",
    "lat": 24.849664,
    "lon": 121.150789,
    "temperature": 29.3,
    "humidity": 70.0,
    "pressure": 983.6,
    "wind_speed": 2.3,
    "wind_dir": 245.0,
    "rain": 0.0,
    "timestamp_weather": "2025-06-21T14:00:00+08:00",
    "rain_now": 0.0,
    "rain_10min": 0.0,
    "rain_1hr": 0.0,
    "rain_3hr": 0.0,
    "rain_6hr": 0.0,
    "rain_12hr": 0.0,
    "rain_24hr": 0.0,
    "rain_2d": 0.0,
    "rain_3d": 0.0,
    "timestamp_rain": "2025-06-21T14:10:00+08:00",
    "stationId": "C0D480"
  },
  {
    "stationName": "西濱S032K",
    "lat": 25.091966,
    "lon": 121.192505,
    "rain_now": 0.0,
    "rain_10min": 0.0,
    "rain_1hr": 0.0,
    "rain_3hr": 0.0,
    "rain_6hr": 0.0,
    "rain_12hr": 0.0,
    "rain_24hr": 0.0,
    "rain_2d": 0.0,
    "rain_3d": 0.0,
    "timestamp_rain": "2025-06-21T14:10:00+08:00",
    "weather": "多雲",
    "visibility": "16-20",
    "sunshine_duration": -99.0,
    "wind_dir": 210.0,
    "wind_speed": 7.0,
    "temperature": 29.4,
    "humidity": 77.0,
    "pressure": -99.0,
    "uv_index": -99,
    "peak_gust_speed": 10.5,
    "timestamp_now": "2025-06-21T14:00:00+08:00",
    "stationId": "CAC060"
  },
  {
    "stationName": "九如里",
    "lat": 25.032491,
    "lon": 121.611605,
    "rain_now": 0.0,
    "rain_10min": 0.0,
    "rain_1hr": 0.0,
    "rain_3hr": 0.0,
    "rain_6hr": 0.0,
    "rain_12hr": 0.0,
    "rain_24hr": 0.0,
    "rain_2d": 0.0,
    "rain_3d": 0.0,
    "timestamp_rain": "2025-06-21T14:10:00+08:00",
    "stationId": "A1AC60"
  },
  {
    "stationName": "三地門",
    "lat": 22.708369,
    "lon": 120.649251,
    "rain_now": 0.0,
    "rain_10min": 0.0,
    "rain_1hr": 0.0,
    "rain_3hr": 0.0,
    "rain_6hr": 0.0,
    "rain_12hr": 0.0,
    "rain_24hr": 0.0,
    "rain_2d": 0.0,
    "rain_3d": 11.0,
    "timestamp_rain": "2025-06-21T14:10:00+08:00",
    "stationId": "01Q930"
  },
  {
    "stationName": "東沙島",
    "lat": 20.700856,
    "lon": 116.73,
    "rain_now": 0.0,
    "rain_10min": 0.0,
    "rain_1hr": 0.0,
    "rain_3hr": 0.0,
    "rain_6hr": 0.0,
    "rain_12hr": 0.0,
    "rain_24hr": 0.0,
    "rain_2d": 0.0,
    "rain_3d": 13.0,
    "timestamp_rain": "2025-06-21T14:10:00+08:00",
    "weather": "-99",
    "visibility": "-99",
    "sunshine_duration": -99.0,
    "wind_dir": 190.0,
    "wind_speed": 2.2,
    "temperature": 33.1,
    "humidity": 69.0,
    "pressure": 1008.8,
    "uv_index": -99,
    "peak_gust_speed": 5.3,
    "timestamp_now": "2025-06-21T14:00:00+08:00",
    "stationId": "468100"
  },
  {
    "stationName": "新竹市東區",
    "lat": 24.798681,
    "lon": 120.986942,
    "temperature": 30.8,
    "humidity": 65.0,
    "pressure": 1001.5,
    "wind_speed": 3.8,
    "wind_dir": 268.0,
    "rain": 0.0,
    "timestamp_weather": "2025-06-21T14:00:00+08:00",
    "rain_now": 0.0,
    "rain_10min": 0.0,
    "rain_1hr": 0.0,
    "rain_3hr": 0.0,
    "rain_6hr": 0.0,
    "rain_12hr": 0.0,
    "rain_24hr": 0.5,
    "rain_2d": 0.5,
    "rain_3d": 0.5,
    "timestamp_rain": "2025-06-21T14:10:00+08:00",
    "stationId": "C0D660"
  },
  {
    "stationName": "崁頂",
    "lat": 22.513226,
    "lon": 120.511111,
    "rain_now": 0.0,
    "rain_10min": 0.0,
    "rain_1hr": 0.0,
    "rain_3hr": 0.0,
    "rain_6hr": 0.0,
    "rain_12hr": 0.0,
    "rain_24hr": 0.0,
    "rain_2d": 0.0,
    "rain_3d": 0.0,
    "timestamp_rain": "2025-06-21T14:10:00+08:00",
    "stationId": "O1R630"
  },
  {
    "stationName": "民生國中",
    "lat": 25.059693,
    "lon": 121.566707,
    "rain_now": 0.0,
    "rain_10min": 0.0,
    "rain_1hr": 0.0,
    "rain_3hr": 0.0,
    "rain_6hr": 0.0,
    "rain_12hr": 0.0,
    "rain_24hr": 4.0,
    "rain_2d": 4.0,
    "rain_3d": 4.0,
    "timestamp_rain": "2025-06-21T14:10:00+08:00",
    "stationId": "A1A9Y0"
  },
  {
    "stationName": "大坑",
    "lat": 24.173142,
    "lon": 120.722289,
    "temperature": 33.4,
    "humidity": 62.0,
    "pressure": 992.0,
    "wind_speed": 2.3,
    "wind_dir": 248.0,
    "rain": 0.0,
    "timestamp_weather": "2025-06-21T14:00:00+08:00",
    "rain_now": 0.0,
    "rain_10min": 0.0,
    "rain_1hr": 0.0,
    "rain_3hr": 0.0,
    "rain_6hr": 0.0,
    "rain_12hr": 0.0,
    "rain_24hr": 0.0,
    "rain_2d": 0.0,
    "rain_3d": 0.0,
    "timestamp_rain": "2025-06-21T14:10:00+08:00",
    "stationId": "C0F970"
  },
  {
    "stationName": "萬丹",
    "lat": 22.588475,
    "lon": 120.485081,
    "temperature": 32.0,
    "humidity": 59.0,
    "pressure": 1004.8,
    "wind_speed": 3.6,
    "wind_dir": 233.0,
    "rain": 0.0,
    "timestamp_weather": "2025-06-21T14:00:00+08:00",
    "rain_now": 0.0,
    "rain_10min": 0.0,
    "rain_1hr": 0.0,
    "rain_3hr": 0.0,
    "rain_6hr": 0.0,
    "rain_12hr": 0.0,
    "rain_24hr": 0.0,
    "rain_2d": 0.0,
    "rain_3d": 3.5,
    "timestamp_rain": "2025-06-21T14:10:00+08:00",
    "stationId": "C0R930"
  },
  {
    "stationName": "名間",
    "lat": 23.837053,
    "lon": 120.701447,
    "temperature": 32.6,
    "humidity": 60.0,
    "pressure": 988.5,
    "wind_speed": 1.2,
    "wind_dir": 280.0,
    "rain": 0.0,
    "timestamp_weather": "2025-06-21T14:00:00+08:00",
    "rain_now": 0.0,
    "rain_10min": 0.0,
    "rain_1hr": 0.0,
    "rain_3hr": 0.0,
    "rain_6hr": 0.0,
    "rain_12hr": 0.0,
    "rain_24hr": 20.5,
    "rain_2d": 21.0,
    "rain_3d": 45.0,
    "timestamp_rain": "2025-06-21T14:10:00+08:00",
    "stationId": "C0I410"
  },
  {
    "stationName": "石碇",
    "lat": 24.993969,
    "lon": 121.662917,
    "temperature": 30.2,
    "humidity": 74.0,
    "pressure": 983.7,
    "wind_speed": 0.0,
    "wind_dir": 0.0,
    "rain": 0.0,
    "timestamp_weather": "2025-06-21T14:00:00+08:00",
    "rain_now": 0.0,
    "rain_10min": 0.0,
    "rain_1hr": 0.0,
    "rain_3hr": 0.0,
    "rain_6hr": 0.0,
    "rain_12hr": 0.0,
    "rain_24hr": 0.0,
    "rain_2d": 0.0,
    "rain_3d": 0.0,
    "timestamp_rain": "2025-06-21T14:10:00+08:00",
    "stationId": "C0A640"
  },
  {
    "stationName": "伯公龍",
    "lat": 24.272392,
    "lon": 120.849047,
    "rain_now": 0.0,
    "rain_10min": 0.0,
    "rain_1hr": 0.0,
    "rain_3hr": 0.0,
    "rain_6hr": 0.0,
    "rain_12hr": 0.0,
    "rain_24hr": 0.0,
    "rain_2d": 0.0,
    "rain_3d": 0.0,
    "timestamp_rain": "2025-06-21T14:10:00+08:00",
    "stationId": "C1F9F1"
  },
  {
    "stationName": "線西",
    "lat": 24.143358,
    "lon": 120.443536,
    "temperature": 31.1,
    "humidity": 72.0,
    "pressure": 1005.5,
    "wind_speed": 5.1,
    "wind_dir": 264.0,
    "rain": 0.0,
    "timestamp_weather": "2025-06-21T14:00:00+08:00",
    "rain_now": 0.0,
    "rain_10min": 0.0,
    "rain_1hr": 0.0,
    "rain_3hr": 0.0,
    "rain_6hr": 0.0,
    "rain_12hr": 0.0,
    "rain_24hr": 0.0,
    "rain_2d": 0.0,
    "rain_3d": 0.0,
    "timestamp_rain": "2025-06-21T14:10:00+08:00",
    "stationId": "C0G900"
  },
  {
    "stationName": "崁頭山",
    "lat": 23.267835,
    "lon": 120.501621,
    "rain_now": 0.0,
    "rain_10min": 0.0,
    "rain_1hr": 0.0,
    "rain_3hr": 0.0,
    "rain_6hr": 0.0,
    "rain_12hr": 0.0,
    "rain_24hr": 0.0,
    "rain_2d": 0.0,
    "rain_3d": 11.0,
    "timestamp_rain": "2025-06-21T14:10:00+08:00",
    "stationId": "81O960"
  },
  {
    "stationName": "馬烈霸",
    "lat": 24.1512,
    "lon": 121.201772,
    "rain_now": 0.0,
    "rain_10min": 0.0,
    "rain_1hr": 0.0,
    "rain_3hr": 0.0,
    "rain_6hr": 0.0,
    "rain_12hr": 0.0,
    "rain_24hr": 8.5,
    "rain_2d": 8.5,
    "rain_3d": 10.0,
    "timestamp_rain": "2025-06-21T14:10:00+08:00",
    "weather": "陰",
    "visibility": "-99",
    "sunshine_duration": -99.0,
    "wind_dir": 150.0,
    "wind_speed": 1.1,
    "temperature": 20.7,
    "humidity": 81.0,
    "pressure": -99.0,
    "uv_index": -99,
    "peak_gust_speed": 3.9,
    "timestamp_now": "2025-06-21T14:00:00+08:00",
    "stationId": "C2H9L0"
  },
  {
    "stationName": "德基",
    "lat": 24.254783,
    "lon": 121.190261,
    "rain_now": 0.0,
    "rain_10min": 0.0,
    "rain_1hr": 0.0,
    "rain_3hr": 0.0,
    "rain_6hr": 0.0,
    "rain_12hr": 0.0,
    "rain_24hr": 10.0,
    "rain_2d": 10.0,
    "rain_3d": 10.5,
    "timestamp_rain": "2025-06-21T14:10:00+08:00",
    "stationId": "C1F9W0"
  },
  {
    "stationName": "前鎮",
    "lat": 22.572152,
    "lon": 120.311191,
    "temperature": 31.6,
    "humidity": 70.0,
    "pressure": 1007.1,
    "wind_speed": 1.9,
    "wind_dir": 239.0,
    "rain": 0.0,
    "timestamp_weather": "2025-06-21T14:00:00+08:00",
    "rain_now": 0.0,
    "rain_10min": 0.0,
    "rain_1hr": 0.0,
    "rain_3hr": 0.0,
    "rain_6hr": 0.0,
    "rain_12hr": 0.0,
    "rain_24hr": 0.0,
    "rain_2d": 0.0,
    "rain_3d": 0.0,
    "timestamp_rain": "2025-06-21T14:10:00+08:00",
    "stationId": "C0V890"
  },
  {
    "stationName": "觀音海岸",
    "lat": 24.383194,
    "lon": 121.778556,
    "rain_now": 0.0,
    "rain_10min": 0.0,
    "rain_1hr": 0.0,
    "rain_3hr": 0.0,
    "rain_6hr": 0.0,
    "rain_12hr": 0.0,
    "rain_24hr": 0.0,
    "rain_2d": 0.0,
    "rain_3d": 0.0,
    "timestamp_rain": "2025-06-21T14:10:00+08:00",
    "stationId": "C1U850"
  },
  {
    "stationName": "大湖(1)",
    "lat": 24.42364,
    "lon": 120.869835,
    "rain_now": 0.0,
    "rain_10min": 0.0,
    "rain_1hr": 0.0,
    "rain_3hr": 0.0,
    "rain_6hr": 0.0,
    "rain_12hr": 0.0,
    "rain_24hr": 0.0,
    "rain_2d": 0.0,
    "rain_3d": 0.0,
    "timestamp_rain": "2025-06-21T14:10:00+08:00",
    "stationId": "01E270"
  },
  {
    "stationName": "內城",
    "lat": 24.718133,
    "lon": 121.687664,
    "temperature": 31.1,
    "humidity": 72.0,
    "pressure": 1002.7,
    "wind_speed": 3.0,
    "wind_dir": 47.0,
    "rain": 0.0,
    "timestamp_weather": "2025-06-21T14:00:00+08:00",
    "rain_now": 0.0,
    "rain_10min": 0.0,
    "rain_1hr": 0.0,
    "rain_3hr": 0.0,
    "rain_6hr": 0.0,
    "rain_12hr": 0.0,
    "rain_24hr": 0.0,
    "rain_2d": 0.0,
    "rain_3d": 0.0,
    "timestamp_rain": "2025-06-21T14:10:00+08:00",
    "stationId": "C0U900"
  },
  {
    "stationName": "大福",
    "lat": 24.800636,
    "lon": 121.813892,
    "temperature": 31.0,
    "humidity": 77.0,
    "pressure": 1008.8,
    "wind_speed": 1.7,
    "wind_dir": 10.0,
    "rain": 0.0,
    "timestamp_weather": "2025-06-21T14:00:00+08:00",
    "rain_now": 0.0,
    "rain_10min": 0.0,
    "rain_1hr": 0.0,
    "rain_3hr": 0.0,
    "rain_6hr": 0.0,
    "rain_12hr": 0.0,
    "rain_24hr": 0.0,
    "rain_2d": 0.0,
    "rain_3d": 0.0,
    "timestamp_rain": "2025-06-21T14:10:00+08:00",
    "stationId": "C0U970"
  },
  {
    "stationName": "國五S041K",
    "lat": 24.734764,
    "lon": 121.781922,
    "rain_now": 0.0,
    "rain_10min": 0.0,
    "rain_1hr": 0.0,
    "rain_3hr": 0.0,
    "rain_6hr": 0.0,
    "rain_12hr": 0.0,
    "rain_24hr": 0.0,
    "rain_2d": 0.0,
    "rain_3d": 0.0,
    "timestamp_rain": "2025-06-21T14:10:00+08:00",
    "weather": "多雲",
    "visibility": "-99",
    "sunshine_duration": -99.0,
    "wind_dir": 40.0,
    "wind_speed": 4.0,
    "temperature": 29.7,
    "humidity": 81.0,
    "pressure": -99.0,
    "uv_index": -99,
    "peak_gust_speed": 6.2,
    "timestamp_now": "2025-06-21T14:00:00+08:00",
    "stationId": "CAUB40"
  },
  {
    "stationName": "那瑪夏國中",
    "lat": 23.240423,
    "lon": 120.696717,
    "rain_now": 0.0,
    "rain_10min": 0.0,
    "rain_1hr": 0.0,
    "rain_3hr": 0.0,
    "rain_6hr": 0.0,
    "rain_12hr": 0.0,
    "rain_24hr": 0.5,
    "rain_2d": 0.5,
    "rain_3d": 1.5,
    "timestamp_rain": "2025-06-21T14:10:00+08:00",
    "stationId": "81V830"
  },
  {
    "stationName": "大桶山",
    "lat": 24.876212,
    "lon": 121.562992,
    "rain_now": 0.0,
    "rain_10min": 0.0,
    "rain_1hr": 0.0,
    "rain_3hr": 0.0,
    "rain_6hr": 0.0,
    "rain_12hr": 0.0,
    "rain_24hr": 3.0,
    "rain_2d": 5.0,
    "rain_3d": 5.0,
    "timestamp_rain": "2025-06-21T14:10:00+08:00",
    "stationId": "01A440"
  },
  {
    "stationName": "翠峰湖",
    "lat": 24.510856,
    "lon": 121.608044,
    "temperature": 18.9,
    "humidity": 93.0,
    "pressure": 813.7,
    "wind_speed": 1.4,
    "wind_dir": 17.0,
    "rain": 0.5,
    "timestamp_weather": "2025-06-21T14:00:00+08:00",
    "rain_now": 0.5,
    "rain_10min": 0.0,
    "rain_1hr": 0.0,
    "rain_3hr": 0.0,
    "rain_6hr": 0.0,
    "rain_12hr": 0.5,
    "rain_24hr": 2.0,
    "rain_2d": 2.0,
    "rain_3d": 2.0,
    "timestamp_rain": "2025-06-21T14:10:00+08:00",
    "stationId": "C0U960"
  },
  {
    "stationName": "永和",
    "lat": 25.01125,
    "lon": 121.508111,
    "temperature": 33.1,
    "humidity": 68.0,
    "pressure": 1004.7,
    "wind_speed": 0.1,
    "wind_dir": 0.0,
    "rain": 0.0,
    "timestamp_weather": "2025-06-21T14:00:00+08:00",
    "rain_now": 0.0,
    "rain_10min": 0.0,
    "rain_1hr": 0.0,
    "rain_3hr": 0.0,
    "rain_6hr": 0.0,
    "rain_12hr": 0.0,
    "rain_24hr": 51.5,
    "rain_2d": 51.5,
    "rain_3d": 51.5,
    "timestamp_rain": "2025-06-21T14:10:00+08:00",
    "stationId": "C0AH10"
  },
  {
    "stationName": "利嘉",
    "lat": 22.809417,
    "lon": 121.050528,
    "rain_now": 0.0,
    "rain_10min": 0.0,
    "rain_1hr": 0.0,
    "rain_3hr": 0.0,
    "rain_6hr": 0.0,
    "rain_12hr": 0.0,
    "rain_24hr": 1.0,
    "rain_2d": 1.0,
    "rain_3d": 23.5,
    "timestamp_rain": "2025-06-21T14:10:00+08:00",
    "stationId": "C1S860"
  },
  {
    "stationName": "阿蓮(2)",
    "lat": 22.876332,
    "lon": 120.327203,
    "rain_now": 0.0,
    "rain_10min": 0.0,
    "rain_1hr": 0.0,
    "rain_3hr": 0.0,
    "rain_6hr": 0.0,
    "rain_12hr": 0.0,
    "rain_24hr": 0.0,
    "rain_2d": 0.0,
    "rain_3d": 1.0,
    "timestamp_rain": "2025-06-21T14:10:00+08:00",
    "stationId": "01P500"
  },
  {
    "stationName": "五結",
    "lat": 24.686369,
    "lon": 121.797944,
    "temperature": 33.9,
    "humidity": 55.0,
    "pressure": 1008.2,
    "wind_speed": 1.3,
    "wind_dir": 94.0,
    "rain": 0.0,
    "timestamp_weather": "2025-06-21T14:00:00+08:00",
    "rain_now": 0.0,
    "rain_10min": 0.0,
    "rain_1hr": 0.0,
    "rain_3hr": 0.0,
    "rain_6hr": 0.0,
    "rain_12hr": 0.0,
    "rain_24hr": 0.0,
    "rain_2d": 0.0,
    "rain_3d": 0.0,
    "timestamp_rain": "2025-06-21T14:10:00+08:00",
    "stationId": "C0U780"
  },
  {
    "stationName": "土城",
    "lat": 24.973208,
    "lon": 121.445169,
    "temperature": 32.3,
    "humidity": 66.0,
    "pressure": 1002.8,
    "wind_speed": 1.3,
    "wind_dir": 276.0,
    "rain": -99.0,
    "timestamp_weather": "2025-06-21T14:00:00+08:00",
    "rain_now": 0.0,
    "rain_10min": 0.0,
    "rain_1hr": 0.0,
    "rain_3hr": 0.0,
    "rain_6hr": 0.0,
    "rain_12hr": 0.0,
    "rain_24hr": 1.5,
    "rain_2d": 1.5,
    "rain_3d": 1.5,
    "timestamp_rain": "2025-06-21T14:10:00+08:00",
    "stationId": "C0AD40"
  },
  {
    "stationName": "五堵",
    "lat": 25.079005,
    "lon": 121.696626,
    "rain_now": 0.0,
    "rain_10min": 0.0,
    "rain_1hr": 0.0,
    "rain_3hr": 0.0,
    "rain_6hr": 0.0,
    "rain_12hr": 0.0,
    "rain_24hr": 6.0,
    "rain_2d": 6.0,
    "rain_3d": 6.0,
    "timestamp_rain": "2025-06-21T14:10:00+08:00",
    "stationId": "01B030"
  },
  {
    "stationName": "華梵大學",
    "lat": 24.982222,
    "lon": 121.690278,
    "rain_now": 0.0,
    "rain_10min": 0.0,
    "rain_1hr": 0.0,
    "rain_3hr": 0.0,
    "rain_6hr": 0.0,
    "rain_12hr": 0.0,
    "rain_24hr": 2.5,
    "rain_2d": 2.5,
    "rain_3d": 2.5,
    "timestamp_rain": "2025-06-21T14:10:00+08:00",
    "stationId": "81AJ30"
  },
  {
    "stationName": "中興",
    "lat": 23.769503,
    "lon": 121.498653,
    "rain_now": 0.0,
    "rain_10min": 0.0,
    "rain_1hr": 0.0,
    "rain_3hr": 0.0,
    "rain_6hr": 0.0,
    "rain_12hr": 0.0,
    "rain_24hr": 0.0,
    "rain_2d": 0.0,
    "rain_3d": 0.0,
    "timestamp_rain": "2025-06-21T14:10:00+08:00",
    "stationId": "C1T920"
  },
  {
    "stationName": "雪嶺",
    "lat": 24.280586,
    "lon": 121.026642,
    "rain_now": 0.5,
    "rain_10min": 0.0,
    "rain_1hr": 0.0,
    "rain_3hr": 0.0,
    "rain_6hr": 0.0,
    "rain_12hr": 0.5,
    "rain_24hr": 1.5,
    "rain_2d": 1.5,
    "rain_3d": 1.5,
    "timestamp_rain": "2025-06-21T14:10:00+08:00",
    "stationId": "C1F941"
  },
  {
    "stationName": "合歡山",
    "lat": 24.143186,
    "lon": 121.284231,
    "rain_now": 0.5,
    "rain_10min": 0.0,
    "rain_1hr": 0.0,
    "rain_3hr": 0.0,
    "rain_6hr": 0.0,
    "rain_12hr": 0.0,
    "rain_24hr": 6.5,
    "rain_2d": 6.5,
    "rain_3d": 6.5,
    "timestamp_rain": "2025-06-21T14:10:00+08:00",
    "weather": "陰",
    "visibility": "-99",
    "sunshine_duration": -99.0,
    "wind_dir": 150.0,
    "wind_speed": 2.2,
    "temperature": 12.8,
    "humidity": 88.0,
    "pressure": -99.0,
    "uv_index": -99,
    "peak_gust_speed": 5.8,
    "timestamp_now": "2025-06-21T14:00:00+08:00",
    "stationId": "A0Z080"
  },
  {
    "stationName": "通霄",
    "lat": 24.471892,
    "lon": 120.704622,
    "temperature": 32.5,
    "humidity": 69.0,
    "pressure": 1004.0,
    "wind_speed": 1.6,
    "wind_dir": 290.0,
    "rain": 0.0,
    "timestamp_weather": "2025-06-21T14:00:00+08:00",
    "rain_now": 0.0,
    "rain_10min": 0.0,
    "rain_1hr": 0.0,
    "rain_3hr": 0.0,
    "rain_6hr": 0.0,
    "rain_12hr": 0.0,
    "rain_24hr": 0.0,
    "rain_2d": 0.0,
    "rain_3d": 0.0,
    "timestamp_rain": "2025-06-21T14:10:00+08:00",
    "stationId": "C0E590"
  },
  {
    "stationName": "嘉義分場",
    "lat": 23.416869,
    "lon": 120.283061,
    "rain_now": 0.0,
    "rain_10min": 0.0,
    "rain_1hr": 0.0,
    "rain_3hr": 0.0,
    "rain_6hr": 0.0,
    "rain_12hr": 0.0,
    "rain_24hr": 0.0,
    "rain_2d": 0.0,
    "rain_3d": 0.0,
    "timestamp_rain": "2025-06-21T14:10:00+08:00",
    "weather": "晴",
    "visibility": "-99",
    "sunshine_duration": -99.0,
    "wind_dir": 240.0,
    "wind_speed": 4.0,
    "temperature": 33.4,
    "humidity": 61.0,
    "pressure": -99.0,
    "uv_index": -99,
    "peak_gust_speed": 8.7,
    "timestamp_now": "2025-06-21T14:00:00+08:00",
    "stationId": "72M700"
  },
  {
    "stationName": "四湖植物園",
    "lat": 23.676986,
    "lon": 120.163433,
    "rain_now": 0.0,
    "rain_10min": 0.0,
    "rain_1hr": 0.0,
    "rain_3hr": 0.0,
    "rain_6hr": 0.0,
    "rain_12hr": 0.0,
    "rain_24hr": 0.0,
    "rain_2d": 0.0,
    "rain_3d": 0.0,
    "timestamp_rain": "2025-06-21T14:10:00+08:00",
    "weather": "晴",
    "visibility": "-99",
    "sunshine_duration": -99.0,
    "wind_dir": 220.0,
    "wind_speed": 1.5,
    "temperature": 32.6,
    "humidity": 83.0,
    "pressure": -99.0,
    "uv_index": -99,
    "peak_gust_speed": 5.4,
    "timestamp_now": "2025-06-21T14:00:00+08:00",
    "stationId": "E2K600"
  },
  {
    "stationName": "沄水國小",
    "lat": 23.381471,
    "lon": 120.530602,
    "rain_now": 0.0,
    "rain_10min": 0.0,
    "rain_1hr": 0.0,
    "rain_3hr": 0.0,
    "rain_6hr": 0.0,
    "rain_12hr": 0.0,
    "rain_24hr": 2.0,
    "rain_2d": 2.5,
    "rain_3d": 5.0,
    "timestamp_rain": "2025-06-21T14:10:00+08:00",
    "stationId": "81M690"
  },
  {
    "stationName": "二林",
    "lat": 23.903319,
    "lon": 120.376069,
    "temperature": 32.1,
    "humidity": 69.0,
    "pressure": 1007.0,
    "wind_speed": 2.9,
    "wind_dir": 274.0,
    "rain": 0.0,
    "timestamp_weather": "2025-06-21T14:00:00+08:00",
    "rain_now": 0.0,
    "rain_10min": 0.0,
    "rain_1hr": 0.0,
    "rain_3hr": 0.0,
    "rain_6hr": 0.0,
    "rain_12hr": 0.0,
    "rain_24hr": 0.0,
    "rain_2d": 0.0,
    "rain_3d": 0.0,
    "timestamp_rain": "2025-06-21T14:10:00+08:00",
    "stationId": "C0G730"
  },
  {
    "stationName": "保力",
    "lat": 22.071122,
    "lon": 120.764111,
    "temperature": -99.0,
    "humidity": -99.0,
    "pressure": -99.0,
    "wind_speed": -99.0,
    "wind_dir": -99.0,
    "rain": -99.0,
    "timestamp_weather": "2025-06-21T14:00:00+08:00",
    "stationId": "C0R770"
  },
  {
    "stationName": "南仁湖",
    "lat": 22.084681,
    "lon": 120.863353,
    "temperature": 29.8,
    "humidity": 69.0,
    "pressure": 971.9,
    "wind_speed": 2.6,
    "wind_dir": 222.0,
    "rain": 0.0,
    "timestamp_weather": "2025-06-21T14:00:00+08:00",
    "rain_now": 0.0,
    "rain_10min": 0.0,
    "rain_1hr": 0.0,
    "rain_3hr": 0.0,
    "rain_6hr": 0.0,
    "rain_12hr": 0.0,
    "rain_24hr": 0.0,
    "rain_2d": 0.0,
    "rain_3d": 17.5,
    "timestamp_rain": "2025-06-21T14:10:00+08:00",
    "stationId": "C0R760"
  },
  {
    "stationName": "文安",
    "lat": 22.802525,
    "lon": 120.216369,
    "temperature": 31.8,
    "humidity": 71.0,
    "pressure": 1008.2,
    "wind_speed": 4.3,
    "wind_dir": 219.0,
    "rain": 0.0,
    "timestamp_weather": "2025-06-21T14:00:00+08:00",
    "rain_now": 0.0,
    "rain_10min": 0.0,
    "rain_1hr": 0.0,
    "rain_3hr": 0.0,
    "rain_6hr": 0.0,
    "rain_12hr": 0.0,
    "rain_24hr": 0.0,
    "rain_2d": 0.0,
    "rain_3d": 0.0,
    "timestamp_rain": "2025-06-21T14:10:00+08:00",
    "stationId": "C0V870"
  },
  {
    "stationName": "東里國中",
    "lat": 23.263333,
    "lon": 121.303056,
    "rain_now": 0.0,
    "rain_10min": 0.0,
    "rain_1hr": 0.0,
    "rain_3hr": 0.0,
    "rain_6hr": 0.0,
    "rain_12hr": 0.0,
    "rain_24hr": 0.0,
    "rain_2d": 0.0,
    "rain_3d": 0.0,
    "timestamp_rain": "2025-06-21T14:10:00+08:00",
    "stationId": "81T910"
  },
  {
    "stationName": "水試所海水繁養殖中心",
    "lat": 23.120802,
    "lon": 120.079676,
    "rain_now": 0.0,
    "rain_10min": 0.0,
    "rain_1hr": 0.0,
    "rain_3hr": 0.0,
    "rain_6hr": 0.0,
    "rain_12hr": 0.0,
    "rain_24hr": 0.0,
    "rain_2d": 0.0,
    "rain_3d": 0.0,
    "timestamp_rain": "2025-06-21T14:10:00+08:00",
    "weather": "晴",
    "visibility": "-99",
    "sunshine_duration": -99.0,
    "wind_dir": 230.0,
    "wind_speed": 5.0,
    "temperature": 31.2,
    "humidity": 65.0,
    "pressure": -99.0,
    "uv_index": -99,
    "peak_gust_speed": 7.5,
    "timestamp_now": "2025-06-21T14:00:00+08:00",
    "stationId": "CAN130"
  },
  {
    "stationName": "楊梅",
    "lat": 24.912375,
    "lon": 121.143047,
    "temperature": 30.8,
    "humidity": 64.0,
    "pressure": 989.8,
    "wind_speed": 2.1,
    "wind_dir": 262.0,
    "rain": 0.0,
    "timestamp_weather": "2025-06-21T14:00:00+08:00",
    "rain_now": 0.0,
    "rain_10min": 0.0,
    "rain_1hr": 0.0,
    "rain_3hr": 0.0,
    "rain_6hr": 0.0,
    "rain_12hr": 0.0,
    "rain_24hr": 0.0,
    "rain_2d": 0.0,
    "rain_3d": 0.0,
    "timestamp_rain": "2025-06-21T14:10:00+08:00",
    "stationId": "C0C660"
  },
  {
    "stationName": "貓空",
    "lat": 24.968892,
    "lon": 121.595301,
    "rain_now": 0.0,
    "rain_10min": 0.0,
    "rain_1hr": 0.0,
    "rain_3hr": 0.0,
    "rain_6hr": 0.0,
    "rain_12hr": 0.0,
    "rain_24hr": 17.5,
    "rain_2d": 17.5,
    "rain_3d": 17.5,
    "timestamp_rain": "2025-06-21T14:10:00+08:00",
    "stationId": "A1AD60"
  },
  {
    "stationName": "馬祖",
    "lat": 26.169467,
    "lon": 119.923158,
    "rain_now": 0.0,
    "rain_10min": 0.0,
    "rain_1hr": 0.0,
    "rain_3hr": 0.0,
    "rain_6hr": 0.0,
    "rain_12hr": 0.0,
    "rain_24hr": 0.0,
    "rain_2d": 0.0,
    "rain_3d": 0.0,
    "timestamp_rain": "2025-06-21T14:10:00+08:00",
    "weather": "多雲",
    "visibility": ">30",
    "sunshine_duration": 8.3,
    "wind_dir": 190.0,
    "wind_speed": 6.6,
    "temperature": 29.9,
    "humidity": 76.0,
    "pressure": 996.7,
    "uv_index": 10,
    "peak_gust_speed": 13.7,
    "timestamp_now": "2025-06-21T14:00:00+08:00",
    "stationId": "467990"
  },
  {
    "stationName": "東澳",
    "lat": 24.521958,
    "lon": 121.833175,
    "temperature": 33.3,
    "humidity": 57.0,
    "pressure": 1006.7,
    "wind_speed": 0.0,
    "wind_dir": 0.0,
    "rain": 0.0,
    "timestamp_weather": "2025-06-21T14:00:00+08:00",
    "rain_now": 0.0,
    "rain_10min": 0.0,
    "rain_1hr": 0.0,
    "rain_3hr": 0.0,
    "rain_6hr": 0.0,
    "rain_12hr": 0.0,
    "rain_24hr": 0.0,
    "rain_2d": 0.0,
    "rain_3d": 0.0,
    "timestamp_rain": "2025-06-21T14:10:00+08:00",
    "stationId": "C0U760"
  },
  {
    "stationName": "中壢",
    "lat": 24.977661,
    "lon": 121.256375,
    "temperature": 31.3,
    "humidity": 62.0,
    "pressure": 992.5,
    "wind_speed": 2.5,
    "wind_dir": 272.0,
    "rain": 1.0,
    "timestamp_weather": "2025-06-21T14:00:00+08:00",
    "rain_now": 1.0,
    "rain_10min": 0.0,
    "rain_1hr": 0.0,
    "rain_3hr": 0.0,
    "rain_6hr": 0.0,
    "rain_12hr": 0.0,
    "rain_24hr": 1.0,
    "rain_2d": 1.0,
    "rain_3d": 1.0,
    "timestamp_rain": "2025-06-21T14:10:00+08:00",
    "stationId": "C0C700"
  },
  {
    "stationName": "箔子寮",
    "lat": 23.619744,
    "lon": 120.140036,
    "temperature": 30.8,
    "humidity": 74.0,
    "pressure": 1007.4,
    "wind_speed": 6.6,
    "wind_dir": 255.0,
    "rain": 0.0,
    "timestamp_weather": "2025-06-21T14:00:00+08:00",
    "rain_now": 0.0,
    "rain_10min": 0.0,
    "rain_1hr": 0.0,
    "rain_3hr": 0.0,
    "rain_6hr": 0.0,
    "rain_12hr": 0.0,
    "rain_24hr": 0.0,
    "rain_2d": 0.0,
    "rain_3d": 0.0,
    "timestamp_rain": "2025-06-21T14:10:00+08:00",
    "stationId": "C0K600"
  },
  {
    "stationName": "畜試所澎湖",
    "lat": 23.628342,
    "lon": 119.513206,
    "rain_now": 0.0,
    "rain_10min": 0.0,
    "rain_1hr": 0.0,
    "rain_3hr": 0.0,
    "rain_6hr": 0.0,
    "rain_12hr": 0.0,
    "rain_24hr": 0.0,
    "rain_2d": 0.0,
    "rain_3d": 0.0,
    "timestamp_rain": "2025-06-21T14:10:00+08:00",
    "weather": "晴",
    "visibility": "-99",
    "sunshine_duration": -99.0,
    "wind_dir": 250.0,
    "wind_speed": 2.6,
    "temperature": 31.2,
    "humidity": 78.0,
    "pressure": -99.0,
    "uv_index": -99,
    "peak_gust_speed": 5.4,
    "timestamp_now": "2025-06-21T14:00:00+08:00",
    "stationId": "C2W230"
  },
  {
    "stationName": "水里",
    "lat": 23.812553,
    "lon": 120.849792,
    "temperature": 30.6,
    "humidity": 62.0,
    "pressure": 974.9,
    "wind_speed": 2.9,
    "wind_dir": 267.0,
    "rain": 0.0,
    "timestamp_weather": "2025-06-21T14:00:00+08:00",
    "rain_now": 0.0,
    "rain_10min": 0.0,
    "rain_1hr": 0.0,
    "rain_3hr": 0.0,
    "rain_6hr": 0.0,
    "rain_12hr": 0.0,
    "rain_24hr": 0.5,
    "rain_2d": 0.5,
    "rain_3d": 31.5,
    "timestamp_rain": "2025-06-21T14:10:00+08:00",
    "stationId": "C0I360"
  },
  {
    "stationName": "桃山",
    "lat": 24.432739,
    "lon": 121.303808,
    "temperature": 14.8,
    "humidity": 79.0,
    "pressure": -99.0,
    "wind_speed": 1.4,
    "wind_dir": 220.0,
    "rain": 0.0,
    "timestamp_weather": "2025-06-21T14:00:00+08:00",
    "rain_now": 0.0,
    "rain_10min": 0.0,
    "rain_1hr": 0.0,
    "rain_3hr": 0.0,
    "rain_6hr": 0.0,
    "rain_12hr": 0.0,
    "rain_24hr": 1.0,
    "rain_2d": 1.0,
    "rain_3d": 5.5,
    "timestamp_rain": "2025-06-21T14:10:00+08:00",
    "stationId": "C0F9Y0"
  },
  {
    "stationName": "基隆嶼",
    "lat": 25.191408,
    "lon": 121.783914,
    "temperature": 29.0,
    "humidity": 96.0,
    "pressure": 997.7,
    "wind_speed": 2.4,
    "wind_dir": 89.0,
    "rain": 0.0,
    "timestamp_weather": "2025-06-21T14:00:00+08:00",
    "rain_now": 0.0,
    "rain_10min": 0.0,
    "rain_1hr": 0.0,
    "rain_3hr": 0.0,
    "rain_6hr": 0.0,
    "rain_12hr": 0.0,
    "rain_24hr": 0.0,
    "rain_2d": 0.0,
    "rain_3d": 0.0,
    "timestamp_rain": "2025-06-21T14:10:00+08:00",
    "stationId": "C0B020"
  },
  {
    "stationName": "楠溪",
    "lat": 23.472849,
    "lon": 120.907956,
    "rain_now": 0.0,
    "rain_10min": 0.0,
    "rain_1hr": 0.0,
    "rain_3hr": 0.0,
    "rain_6hr": 0.0,
    "rain_12hr": 0.0,
    "rain_24hr": 0.0,
    "rain_2d": 0.0,
    "rain_3d": 14.0,
    "timestamp_rain": "2025-06-21T14:10:00+08:00",
    "stationId": "O1I360"
  },
  {
    "stationName": "南勢",
    "lat": 24.572486,
    "lon": 120.734842,
    "rain_now": 0.0,
    "rain_10min": 0.0,
    "rain_1hr": 0.0,
    "rain_3hr": 0.0,
    "rain_6hr": 0.0,
    "rain_12hr": 0.0,
    "rain_24hr": 0.0,
    "rain_2d": 0.0,
    "rain_3d": 0.0,
    "timestamp_rain": "2025-06-21T14:10:00+08:00",
    "stationId": "C1E601"
  },
  {
    "stationName": "湖口",
    "lat": 24.904794,
    "lon": 121.043628,
    "temperature": 30.0,
    "humidity": 71.0,
    "pressure": 998.4,
    "wind_speed": 4.2,
    "wind_dir": 281.0,
    "rain": 0.0,
    "timestamp_weather": "2025-06-21T14:00:00+08:00",
    "rain_now": 0.0,
    "rain_10min": 0.0,
    "rain_1hr": 0.0,
    "rain_3hr": 0.0,
    "rain_6hr": 0.0,
    "rain_12hr": 0.0,
    "rain_24hr": 6.5,
    "rain_2d": 6.5,
    "rain_3d": 6.5,
    "timestamp_rain": "2025-06-21T14:10:00+08:00",
    "stationId": "C0D650"
  },
  {
    "stationName": "竹山",
    "lat": 23.761225,
    "lon": 120.688156,
    "temperature": 32.7,
    "humidity": 62.0,
    "pressure": 990.8,
    "wind_speed": 0.7,
    "wind_dir": 246.0,
    "rain": -99.0,
    "timestamp_weather": "2025-06-21T14:00:00+08:00",
    "rain_now": 0.0,
    "rain_10min": 0.0,
    "rain_1hr": 0.0,
    "rain_3hr": 0.0,
    "rain_6hr": 0.0,
    "rain_12hr": 0.0,
    "rain_24hr": 73.5,
    "rain_2d": 73.5,
    "rain_3d": 83.5,
    "timestamp_rain": "2025-06-21T14:10:00+08:00",
    "stationId": "C0I110"
  },
  {
    "stationName": "楓樹林",
    "lat": 23.986803,
    "lon": 121.076117,
    "rain_now": 0.0,
    "rain_10min": 0.0,
    "rain_1hr": 0.0,
    "rain_3hr": 0.0,
    "rain_6hr": 0.0,
    "rain_12hr": 0.0,
    "rain_24hr": 7.5,
    "rain_2d": 7.5,
    "rain_3d": 7.5,
    "timestamp_rain": "2025-06-21T14:10:00+08:00",
    "stationId": "C1I330"
  },
  {
    "stationName": "竹子湖",
    "lat": 25.162299,
    "lon": 121.54405,
    "rain_now": 0.0,
    "rain_10min": 0.0,
    "rain_1hr": 0.0,
    "rain_3hr": 0.0,
    "rain_6hr": 0.0,
    "rain_12hr": 0.0,
    "rain_24hr": 0.0,
    "rain_2d": 0.0,
    "rain_3d": 0.0,
    "timestamp_rain": "2025-06-21T14:10:00+08:00",
    "stationId": "01A420"
  },
  {
    "stationName": "玉峰",
    "lat": 24.664908,
    "lon": 121.308185,
    "rain_now": 0.0,
    "rain_10min": 0.0,
    "rain_1hr": 0.0,
    "rain_3hr": 0.0,
    "rain_6hr": 0.0,
    "rain_12hr": 0.0,
    "rain_24hr": 0.0,
    "rain_2d": 0.0,
    "rain_3d": 2.0,
    "timestamp_rain": "2025-06-21T14:10:00+08:00",
    "stationId": "21D150"
  },
  {
    "stationName": "明池",
    "lat": 24.650688,
    "lon": 121.475277,
    "temperature": 21.4,
    "humidity": 95.0,
    "pressure": 882.8,
    "wind_speed": 0.4,
    "wind_dir": 108.0,
    "rain": 8.0,
    "timestamp_weather": "2025-06-21T14:00:00+08:00",
    "rain_now": 8.0,
    "rain_10min": 0.0,
    "rain_1hr": 8.0,
    "rain_3hr": 8.0,
    "rain_6hr": 8.0,
    "rain_12hr": 8.0,
    "rain_24hr": 52.5,
    "rain_2d": 53.0,
    "rain_3d": 53.0,
    "timestamp_rain": "2025-06-21T14:10:00+08:00",
    "stationId": "C0UB60"
  },
  {
    "stationName": "長治",
    "lat": 22.693128,
    "lon": 120.542622,
    "temperature": 34.0,
    "humidity": 57.0,
    "pressure": 1002.3,
    "wind_speed": 0.6,
    "wind_dir": 213.0,
    "rain": 0.0,
    "timestamp_weather": "2025-06-21T14:00:00+08:00",
    "rain_now": 0.0,
    "rain_10min": 0.0,
    "rain_1hr": 0.0,
    "rain_3hr": 0.0,
    "rain_6hr": 0.0,
    "rain_12hr": 0.0,
    "rain_24hr": 0.0,
    "rain_2d": 0.0,
    "rain_3d": 13.0,
    "timestamp_rain": "2025-06-21T14:10:00+08:00",
    "stationId": "C0R480"
  },
  {
    "stationName": "蓮華池",
    "lat": 23.918333,
    "lon": 120.885278,
    "rain_now": 0.0,
    "rain_10min": 0.0,
    "rain_1hr": 0.0,
    "rain_3hr": 0.0,
    "rain_6hr": 0.0,
    "rain_12hr": 0.0,
    "rain_24hr": 0.0,
    "rain_2d": 0.5,
    "rain_3d": 5.5,
    "timestamp_rain": "2025-06-21T14:10:00+08:00",
    "weather": "陰",
    "visibility": "-99",
    "sunshine_duration": -99.0,
    "wind_dir": 80.0,
    "wind_speed": 0.6,
    "temperature": 28.1,
    "humidity": 68.0,
    "pressure": -99.0,
    "uv_index": -99,
    "peak_gust_speed": 3.6,
    "timestamp_now": "2025-06-21T14:00:00+08:00",
    "stationId": "E2H360"
  },
  {
    "stationName": "金寧",
    "lat": 24.457703,
    "lon": 118.328989,
    "temperature": 31.0,
    "humidity": 68.0,
    "pressure": 1005.0,
    "wind_speed": 4.8,
    "wind_dir": 218.0,
    "rain": 0.0,
    "timestamp_weather": "2025-06-21T14:00:00+08:00",
    "rain_now": 0.0,
    "rain_10min": 0.0,
    "rain_1hr": 0.0,
    "rain_3hr": 0.0,
    "rain_6hr": 0.0,
    "rain_12hr": 0.0,
    "rain_24hr": 0.0,
    "rain_2d": 0.0,
    "rain_3d": 4.0,
    "timestamp_rain": "2025-06-21T14:10:00+08:00",
    "stationId": "C0W150"
  },
  {
    "stationName": "博嘉國小",
    "lat": 25.002193,
    "lon": 121.575304,
    "rain_now": 0.0,
    "rain_10min": 0.0,
    "rain_1hr": 0.0,
    "rain_3hr": 0.0,
    "rain_6hr": 0.0,
    "rain_12hr": 0.0,
    "rain_24hr": 3.5,
    "rain_2d": 3.5,
    "rain_3d": 3.5,
    "timestamp_rain": "2025-06-21T14:10:00+08:00",
    "stationId": "A1AA90"
  },
  {
    "stationName": "社子",
    "lat": 25.109508,
    "lon": 121.469681,
    "temperature": 33.4,
    "humidity": 69.0,
    "pressure": 1008.0,
    "wind_speed": 2.0,
    "wind_dir": 337.0,
    "rain": -99.0,
    "timestamp_weather": "2025-06-21T14:00:00+08:00",
    "rain_now": 0.0,
    "rain_10min": 0.0,
    "rain_1hr": 0.0,
    "rain_3hr": 0.0,
    "rain_6hr": 0.0,
    "rain_12hr": 0.0,
    "rain_24hr": 0.5,
    "rain_2d": 0.5,
    "rain_3d": 0.5,
    "timestamp_rain": "2025-06-21T14:10:00+08:00",
    "stationId": "C0A980"
  },
  {
    "stationName": "宜蘭畜試",
    "lat": 24.669039,
    "lon": 121.832561,
    "rain_now": 0.0,
    "rain_10min": 0.0,
    "rain_1hr": 0.0,
    "rain_3hr": 0.0,
    "rain_6hr": 0.0,
    "rain_12hr": 0.0,
    "rain_24hr": 0.0,
    "rain_2d": 0.0,
    "rain_3d": 0.0,
    "timestamp_rain": "2025-06-21T14:10:00+08:00",
    "weather": "多雲",
    "visibility": "-99",
    "sunshine_duration": -99.0,
    "wind_dir": 130.0,
    "wind_speed": 3.1,
    "temperature": 33.2,
    "humidity": 64.0,
    "pressure": -99.0,
    "uv_index": -99,
    "peak_gust_speed": 5.7,
    "timestamp_now": "2025-06-21T14:00:00+08:00",
    "stationId": "B2U990"
  },
  {
    "stationName": "土阪",
    "lat": 22.453108,
    "lon": 120.887572,
    "temperature": 32.0,
    "humidity": 71.0,
    "pressure": 992.9,
    "wind_speed": 0.4,
    "wind_dir": 63.0,
    "rain": 0.0,
    "timestamp_weather": "2025-06-21T14:00:00+08:00",
    "rain_now": 0.0,
    "rain_10min": 0.0,
    "rain_1hr": 0.0,
    "rain_3hr": 0.0,
    "rain_6hr": 0.0,
    "rain_12hr": 0.0,
    "rain_24hr": 0.0,
    "rain_2d": 0.0,
    "rain_3d": 0.0,
    "timestamp_rain": "2025-06-21T14:10:00+08:00",
    "stationId": "C0SA80"
  },
  {
    "stationName": "梓官",
    "lat": 22.760558,
    "lon": 120.267211,
    "temperature": 31.4,
    "humidity": 67.0,
    "pressure": 1006.3,
    "wind_speed": 3.8,
    "wind_dir": 226.0,
    "rain": 0.0,
    "timestamp_weather": "2025-06-21T14:00:00+08:00",
    "rain_now": 0.0,
    "rain_10min": 0.0,
    "rain_1hr": 0.0,
    "rain_3hr": 0.0,
    "rain_6hr": 0.0,
    "rain_12hr": 0.0,
    "rain_24hr": 0.0,
    "rain_2d": 0.0,
    "rain_3d": 9.0,
    "timestamp_rain": "2025-06-21T14:10:00+08:00",
    "stationId": "C0V610"
  },
  {
    "stationName": "將軍",
    "lat": 23.214972,
    "lon": 120.135761,
    "temperature": 31.6,
    "humidity": 59.0,
    "pressure": 1007.1,
    "wind_speed": 4.0,
    "wind_dir": 216.0,
    "rain": 0.0,
    "timestamp_weather": "2025-06-21T14:00:00+08:00",
    "rain_now": 0.0,
    "rain_10min": 0.0,
    "rain_1hr": 0.0,
    "rain_3hr": 0.0,
    "rain_6hr": 0.0,
    "rain_12hr": 0.0,
    "rain_24hr": 0.0,
    "rain_2d": 0.0,
    "rain_3d": 0.0,
    "timestamp_rain": "2025-06-21T14:10:00+08:00",
    "stationId": "C0X280"
  },
  {
    "stationName": "白冷",
    "lat": 24.182844,
    "lon": 120.929889,
    "rain_now": 0.0,
    "rain_10min": 0.0,
    "rain_1hr": 0.0,
    "rain_3hr": 0.0,
    "rain_6hr": 0.0,
    "rain_12hr": 0.0,
    "rain_24hr": 0.5,
    "rain_2d": 0.5,
    "rain_3d": 4.0,
    "timestamp_rain": "2025-06-21T14:10:00+08:00",
    "stationId": "C1F9C1"
  },
  {
    "stationName": "民雄",
    "lat": 23.551742,
    "lon": 120.428444,
    "temperature": 33.2,
    "humidity": 60.0,
    "pressure": 1004.8,
    "wind_speed": 3.1,
    "wind_dir": 263.0,
    "rain": 0.0,
    "timestamp_weather": "2025-06-21T14:00:00+08:00",
    "rain_now": 0.0,
    "rain_10min": 0.0,
    "rain_1hr": 0.0,
    "rain_3hr": 0.0,
    "rain_6hr": 0.0,
    "rain_12hr": 0.0,
    "rain_24hr": 0.0,
    "rain_2d": 0.0,
    "rain_3d": 0.0,
    "timestamp_rain": "2025-06-21T14:10:00+08:00",
    "stationId": "C0M760"
  },
  {
    "stationName": "牛鬥",
    "lat": 24.637836,
    "lon": 121.573656,
    "rain_now": 0.0,
    "rain_10min": 0.0,
    "rain_1hr": 0.0,
    "rain_3hr": 0.0,
    "rain_6hr": 0.0,
    "rain_12hr": 0.0,
    "rain_24hr": 6.5,
    "rain_2d": 6.5,
    "rain_3d": 6.5,
    "timestamp_rain": "2025-06-21T14:10:00+08:00",
    "stationId": "C1U501"
  },
  {
    "stationName": "線浸林道",
    "lat": 23.761508,
    "lon": 120.832956,
    "rain_now": 0.0,
    "rain_10min": 0.0,
    "rain_1hr": 0.0,
    "rain_3hr": 0.0,
    "rain_6hr": 0.0,
    "rain_12hr": 0.0,
    "rain_24hr": 14.0,
    "rain_2d": 14.0,
    "rain_3d": 105.0,
    "timestamp_rain": "2025-06-21T14:10:00+08:00",
    "stationId": "C1I510"
  },
  {
    "stationName": "國一S144K",
    "lat": 24.437042,
    "lon": 120.778219,
    "rain_now": 0.0,
    "rain_10min": 0.0,
    "rain_1hr": 0.0,
    "rain_3hr": 0.0,
    "rain_6hr": 0.0,
    "rain_12hr": 0.0,
    "rain_24hr": 0.0,
    "rain_2d": 0.0,
    "rain_3d": 0.0,
    "timestamp_rain": "2025-06-21T14:10:00+08:00",
    "weather": "多雲",
    "visibility": "7-10",
    "sunshine_duration": -99.0,
    "wind_dir": 250.0,
    "wind_speed": 1.7,
    "temperature": 29.8,
    "humidity": 77.0,
    "pressure": -99.0,
    "uv_index": -99,
    "peak_gust_speed": 5.7,
    "timestamp_now": "2025-06-21T14:00:00+08:00",
    "stationId": "CAE560"
  },
  {
    "stationName": "大社",
    "lat": 22.730306,
    "lon": 120.346639,
    "temperature": 32.9,
    "humidity": 65.0,
    "pressure": 1007.6,
    "wind_speed": 1.9,
    "wind_dir": 249.0,
    "rain": 0.0,
    "timestamp_weather": "2025-06-21T14:00:00+08:00",
    "rain_now": 0.0,
    "rain_10min": 0.0,
    "rain_1hr": 0.0,
    "rain_3hr": 0.0,
    "rain_6hr": 0.0,
    "rain_12hr": 0.0,
    "rain_24hr": 0.0,
    "rain_2d": 0.0,
    "rain_3d": 29.0,
    "timestamp_rain": "2025-06-21T14:10:00+08:00",
    "stationId": "C0V770"
  },
  {
    "stationName": "口湖",
    "lat": 23.585344,
    "lon": 120.180517,
    "rain_now": 0.0,
    "rain_10min": 0.0,
    "rain_1hr": 0.0,
    "rain_3hr": 0.0,
    "rain_6hr": 0.0,
    "rain_12hr": 0.0,
    "rain_24hr": 0.0,
    "rain_2d": 0.0,
    "rain_3d": 0.0,
    "timestamp_rain": "2025-06-21T14:10:00+08:00",
    "stationId": "C1K540"
  },
  {
    "stationName": "七塊厝",
    "lat": 22.954453,
    "lon": 121.229922,
    "temperature": 30.1,
    "humidity": 56.0,
    "pressure": 964.2,
    "wind_speed": 3.0,
    "wind_dir": 196.0,
    "rain": 0.5,
    "timestamp_weather": "2025-06-21T14:00:00+08:00",
    "rain_now": 0.5,
    "rain_10min": 0.0,
    "rain_1hr": 0.0,
    "rain_3hr": 0.0,
    "rain_6hr": 0.0,
    "rain_12hr": 0.5,
    "rain_24hr": 0.5,
    "rain_2d": 0.5,
    "rain_3d": 0.5,
    "timestamp_rain": "2025-06-21T14:10:00+08:00",
    "stationId": "C0S950"
  },
  {
    "stationName": "梅峰",
    "lat": 24.085272,
    "lon": 121.173572,
    "temperature": 18.7,
    "humidity": 82.0,
    "pressure": 789.9,
    "wind_speed": 0.7,
    "wind_dir": 229.0,
    "rain": 0.0,
    "timestamp_weather": "2025-06-21T14:00:00+08:00",
    "rain_now": 0.0,
    "rain_10min": 0.0,
    "rain_1hr": 0.0,
    "rain_3hr": 0.0,
    "rain_6hr": 0.0,
    "rain_12hr": 0.0,
    "rain_24hr": 16.0,
    "rain_2d": 16.0,
    "rain_3d": 16.0,
    "timestamp_rain": "2025-06-21T14:10:00+08:00",
    "stationId": "C0I480"
  },
  {
    "stationName": "武界",
    "lat": 23.913225,
    "lon": 121.052483,
    "rain_now": 0.0,
    "rain_10min": 0.0,
    "rain_1hr": 0.0,
    "rain_3hr": 0.0,
    "rain_6hr": 0.0,
    "rain_12hr": 0.0,
    "rain_24hr": 4.0,
    "rain_2d": 4.0,
    "rain_3d": 5.0,
    "timestamp_rain": "2025-06-21T14:10:00+08:00",
    "stationId": "C1I030"
  },
  {
    "stationName": "山上",
    "lat": 23.0757,
    "lon": 120.363253,
    "temperature": 32.9,
    "humidity": 66.0,
    "pressure": 1002.0,
    "wind_speed": 1.7,
    "wind_dir": 246.0,
    "rain": -99.0,
    "timestamp_weather": "2025-06-21T14:00:00+08:00",
    "rain_now": 0.0,
    "rain_10min": 0.0,
    "rain_1hr": 0.0,
    "rain_3hr": 0.0,
    "rain_6hr": 0.0,
    "rain_12hr": 0.0,
    "rain_24hr": 0.0,
    "rain_2d": 0.0,
    "rain_3d": 0.0,
    "timestamp_rain": "2025-06-21T14:10:00+08:00",
    "stationId": "C0X180"
  },
  {
    "stationName": "舊莊里",
    "lat": 25.03399,
    "lon": 121.624705,
    "rain_now": 0.0,
    "rain_10min": 0.0,
    "rain_1hr": 0.0,
    "rain_3hr": 0.0,
    "rain_6hr": 0.0,
    "rain_12hr": 0.0,
    "rain_24hr": 0.0,
    "rain_2d": 0.0,
    "rain_3d": 0.0,
    "timestamp_rain": "2025-06-21T14:10:00+08:00",
    "stationId": "A1AC50"
  },
  {
    "stationName": "國一S162K",
    "lat": 24.295534,
    "lon": 120.695976,
    "rain_now": 0.0,
    "rain_10min": 0.0,
    "rain_1hr": 0.0,
    "rain_3hr": 0.0,
    "rain_6hr": 0.0,
    "rain_12hr": 0.0,
    "rain_24hr": 0.0,
    "rain_2d": 0.0,
    "rain_3d": 0.0,
    "timestamp_rain": "2025-06-21T14:10:00+08:00",
    "weather": "晴",
    "visibility": "-99",
    "sunshine_duration": -99.0,
    "wind_dir": 260.0,
    "wind_speed": 4.0,
    "temperature": 31.6,
    "humidity": 68.0,
    "pressure": -99.0,
    "uv_index": -99,
    "peak_gust_speed": 9.1,
    "timestamp_now": "2025-06-21T14:00:00+08:00",
    "stationId": "CAF020"
  },
  {
    "stationName": "大林",
    "lat": 23.600606,
    "lon": 120.458397,
    "temperature": 33.6,
    "humidity": 56.0,
    "pressure": 1003.7,
    "wind_speed": 1.5,
    "wind_dir": 248.0,
    "rain": 0.0,
    "timestamp_weather": "2025-06-21T14:00:00+08:00",
    "rain_now": 0.0,
    "rain_10min": 0.0,
    "rain_1hr": 0.0,
    "rain_3hr": 0.0,
    "rain_6hr": 0.0,
    "rain_12hr": 0.0,
    "rain_24hr": 0.0,
    "rain_2d": 0.0,
    "rain_3d": 0.0,
    "timestamp_rain": "2025-06-21T14:10:00+08:00",
    "stationId": "C0M670"
  },
  {
    "stationName": "獨立山",
    "lat": 23.537022,
    "lon": 120.607797,
    "rain_now": 0.0,
    "rain_10min": 0.0,
    "rain_1hr": 0.0,
    "rain_3hr": 0.0,
    "rain_6hr": 0.0,
    "rain_12hr": 0.0,
    "rain_24hr": 82.5,
    "rain_2d": 82.5,
    "rain_3d": 88.5,
    "timestamp_rain": "2025-06-21T14:10:00+08:00",
    "stationId": "C1M480"
  },
  {
    "stationName": "富南部落",
    "lat": 23.133056,
    "lon": 121.246667,
    "rain_now": 0.0,
    "rain_10min": 0.0,
    "rain_1hr": 0.0,
    "rain_3hr": 0.0,
    "rain_6hr": 0.0,
    "rain_12hr": 0.0,
    "rain_24hr": 0.0,
    "rain_2d": 0.0,
    "rain_3d": 0.0,
    "timestamp_rain": "2025-06-21T14:10:00+08:00",
    "stationId": "81T760"
  },
  {
    "stationName": "清流",
    "lat": 24.080775,
    "lon": 120.962997,
    "rain_now": 0.0,
    "rain_10min": 0.0,
    "rain_1hr": 0.0,
    "rain_3hr": 0.0,
    "rain_6hr": 0.0,
    "rain_12hr": 0.0,
    "rain_24hr": 1.5,
    "rain_2d": 1.5,
    "rain_3d": 2.5,
    "timestamp_rain": "2025-06-21T14:10:00+08:00",
    "stationId": "C1H900"
  },
  {
    "stationName": "內獅國小",
    "lat": 22.305,
    "lon": 120.644722,
    "rain_now": 0.0,
    "rain_10min": 0.0,
    "rain_1hr": 0.0,
    "rain_3hr": 0.0,
    "rain_6hr": 0.0,
    "rain_12hr": 0.0,
    "rain_24hr": 0.0,
    "rain_2d": 0.0,
    "rain_3d": 0.0,
    "timestamp_rain": "2025-06-21T14:10:00+08:00",
    "stationId": "81R660"
  },
  {
    "stationName": "大里國小",
    "lat": 24.970278,
    "lon": 121.926111,
    "rain_now": 0.0,
    "rain_10min": 0.0,
    "rain_1hr": 0.0,
    "rain_3hr": 0.0,
    "rain_6hr": 0.0,
    "rain_12hr": 0.0,
    "rain_24hr": 0.0,
    "rain_2d": 0.0,
    "rain_3d": 0.0,
    "timestamp_rain": "2025-06-21T14:10:00+08:00",
    "stationId": "81U890"
  },
  {
    "stationName": "龍南",
    "lat": 23.953536,
    "lon": 120.833183,
    "rain_now": 0.0,
    "rain_10min": 0.0,
    "rain_1hr": 0.0,
    "rain_3hr": 0.0,
    "rain_6hr": 0.0,
    "rain_12hr": 0.0,
    "rain_24hr": 29.5,
    "rain_2d": 29.5,
    "rain_3d": 36.0,
    "timestamp_rain": "2025-06-21T14:10:00+08:00",
    "weather": "多雲",
    "visibility": "-99",
    "sunshine_duration": -99.0,
    "wind_dir": 240.0,
    "wind_speed": 1.2,
    "temperature": 26.3,
    "humidity": 74.0,
    "pressure": -99.0,
    "uv_index": -99,
    "peak_gust_speed": 5.0,
    "timestamp_now": "2025-06-21T14:00:00+08:00",
    "stationId": "C2H9S0"
  },
  {
    "stationName": "賓茂國小",
    "lat": 22.532409,
    "lon": 120.954393,
    "rain_now": 0.0,
    "rain_10min": 0.0,
    "rain_1hr": 0.0,
    "rain_3hr": 0.0,
    "rain_6hr": 0.0,
    "rain_12hr": 0.0,
    "rain_24hr": 0.0,
    "rain_2d": 0.0,
    "rain_3d": 0.0,
    "timestamp_rain": "2025-06-21T14:10:00+08:00",
    "stationId": "O1S660"
  },
  {
    "stationName": "東眼山",
    "lat": 24.8284,
    "lon": 121.40888,
    "temperature": 27.5,
    "humidity": -99.0,
    "pressure": 914.6,
    "wind_speed": 0.7,
    "wind_dir": 293.0,
    "rain": 0.0,
    "timestamp_weather": "2025-06-21T14:00:00+08:00",
    "rain_now": 0.0,
    "rain_10min": 0.0,
    "rain_1hr": 0.0,
    "rain_3hr": 0.0,
    "rain_6hr": 0.0,
    "rain_12hr": 0.0,
    "rain_24hr": 10.5,
    "rain_2d": 10.5,
    "rain_3d": 10.5,
    "timestamp_rain": "2025-06-21T14:10:00+08:00",
    "stationId": "C0C790"
  },
  {
    "stationName": "坪廓分校",
    "lat": 24.156667,
    "lon": 120.756667,
    "rain_now": 0.0,
    "rain_10min": 0.0,
    "rain_1hr": 0.0,
    "rain_3hr": 0.0,
    "rain_6hr": 0.0,
    "rain_12hr": 0.0,
    "rain_24hr": 0.0,
    "rain_2d": 0.0,
    "rain_3d": 0.0,
    "timestamp_rain": "2025-06-21T14:10:00+08:00",
    "stationId": "81F890"
  },
  {
    "stationName": "初鹿國中",
    "lat": 22.849954,
    "lon": 121.092326,
    "rain_now": 0.0,
    "rain_10min": 0.0,
    "rain_1hr": 0.0,
    "rain_3hr": 0.0,
    "rain_6hr": 0.0,
    "rain_12hr": 0.0,
    "rain_24hr": 0.0,
    "rain_2d": 0.0,
    "rain_3d": 0.0,
    "timestamp_rain": "2025-06-21T14:10:00+08:00",
    "stationId": "81S890"
  },
  {
    "stationName": "臺西",
    "lat": 23.701544,
    "lon": 120.197547,
    "temperature": 31.0,
    "humidity": 71.0,
    "pressure": 1008.1,
    "wind_speed": 4.0,
    "wind_dir": 249.0,
    "rain": 0.0,
    "timestamp_weather": "2025-06-21T14:00:00+08:00",
    "rain_now": 0.0,
    "rain_10min": 0.0,
    "rain_1hr": 0.0,
    "rain_3hr": 0.0,
    "rain_6hr": 0.0,
    "rain_12hr": 0.0,
    "rain_24hr": 0.0,
    "rain_2d": 0.0,
    "rain_3d": 0.0,
    "timestamp_rain": "2025-06-21T14:10:00+08:00",
    "stationId": "C0K530"
  },
  {
    "stationName": "麥寮合作社",
    "lat": 23.753836,
    "lon": 120.294783,
    "rain_now": 0.0,
    "rain_10min": 0.0,
    "rain_1hr": 0.0,
    "rain_3hr": 0.0,
    "rain_6hr": 0.0,
    "rain_12hr": 0.0,
    "rain_24hr": 0.0,
    "rain_2d": 0.0,
    "rain_3d": 0.0,
    "timestamp_rain": "2025-06-21T14:10:00+08:00",
    "weather": "晴",
    "visibility": "-99",
    "sunshine_duration": -99.0,
    "wind_dir": 270.0,
    "wind_speed": 4.6,
    "temperature": 32.0,
    "humidity": 67.0,
    "pressure": -99.0,
    "uv_index": -99,
    "peak_gust_speed": 7.8,
    "timestamp_now": "2025-06-21T14:00:00+08:00",
    "stationId": "V2K620"
  },
  {
    "stationName": "豐原",
    "lat": 24.254322,
    "lon": 120.720692,
    "temperature": 33.0,
    "humidity": 63.0,
    "pressure": 981.3,
    "wind_speed": 1.4,
    "wind_dir": 274.0,
    "rain": -99.0,
    "timestamp_weather": "2025-06-21T14:00:00+08:00",
    "rain_now": 0.0,
    "rain_10min": 0.0,
    "rain_1hr": 0.0,
    "rain_3hr": 0.0,
    "rain_6hr": 0.0,
    "rain_12hr": 0.0,
    "rain_24hr": 0.0,
    "rain_2d": 0.0,
    "rain_3d": 0.0,
    "timestamp_rain": "2025-06-21T14:10:00+08:00",
    "stationId": "C0F9M0"
  },
  {
    "stationName": "臺西水試",
    "lat": 23.717231,
    "lon": 120.190522,
    "rain_now": 0.0,
    "rain_10min": 0.0,
    "rain_1hr": 0.0,
    "rain_3hr": 0.0,
    "rain_6hr": 0.0,
    "rain_12hr": 0.0,
    "rain_24hr": 0.0,
    "rain_2d": 0.0,
    "rain_3d": 0.0,
    "timestamp_rain": "2025-06-21T14:10:00+08:00",
    "weather": "晴",
    "visibility": "-99",
    "sunshine_duration": -99.0,
    "wind_dir": 260.0,
    "wind_speed": 3.0,
    "temperature": 32.4,
    "humidity": 74.0,
    "pressure": -99.0,
    "uv_index": -99,
    "peak_gust_speed": 6.7,
    "timestamp_now": "2025-06-21T14:00:00+08:00",
    "stationId": "A2K360"
  },
  {
    "stationName": "四堵",
    "lat": 24.8926,
    "lon": 121.745736,
    "rain_now": 0.0,
    "rain_10min": 0.0,
    "rain_1hr": 0.0,
    "rain_3hr": 0.0,
    "rain_6hr": 0.0,
    "rain_12hr": 0.0,
    "rain_24hr": 55.0,
    "rain_2d": 55.0,
    "rain_3d": 55.0,
    "timestamp_rain": "2025-06-21T14:10:00+08:00",
    "weather": "多雲",
    "visibility": "-99",
    "sunshine_duration": -99.0,
    "wind_dir": 10.0,
    "wind_speed": 0.4,
    "temperature": 31.2,
    "humidity": 69.0,
    "pressure": -99.0,
    "uv_index": -99,
    "peak_gust_speed": 1.7,
    "timestamp_now": "2025-06-21T14:00:00+08:00",
    "stationId": "C2A540"
  },
  {
    "stationName": "萬榮",
    "lat": 23.709219,
    "lon": 121.420106,
    "temperature": 30.9,
    "humidity": 70.0,
    "pressure": 992.1,
    "wind_speed": 1.6,
    "wind_dir": 85.0,
    "rain": 0.0,
    "timestamp_weather": "2025-06-21T14:00:00+08:00",
    "rain_now": 0.0,
    "rain_10min": 0.0,
    "rain_1hr": 0.0,
    "rain_3hr": 0.0,
    "rain_6hr": 0.0,
    "rain_12hr": 0.0,
    "rain_24hr": 0.0,
    "rain_2d": 0.0,
    "rain_3d": 0.0,
    "timestamp_rain": "2025-06-21T14:10:00+08:00",
    "stationId": "C0Z200"
  },
  {
    "stationName": "國三S175K",
    "lat": 24.251494,
    "lon": 120.589683,
    "rain_now": 0.0,
    "rain_10min": 0.0,
    "rain_1hr": 0.0,
    "rain_3hr": 0.0,
    "rain_6hr": 0.0,
    "rain_12hr": 0.0,
    "rain_24hr": 0.0,
    "rain_2d": 0.0,
    "rain_3d": 0.0,
    "timestamp_rain": "2025-06-21T14:10:00+08:00",
    "weather": "晴",
    "visibility": "7-10",
    "sunshine_duration": -99.0,
    "wind_dir": 230.0,
    "wind_speed": 5.0,
    "temperature": 30.6,
    "humidity": 65.0,
    "pressure": -99.0,
    "uv_index": -99,
    "peak_gust_speed": 8.6,
    "timestamp_now": "2025-06-21T14:00:00+08:00",
    "stationId": "CAF960"
  },
  {
    "stationName": "大樹",
    "lat": 22.684645,
    "lon": 120.432803,
    "temperature": 32.3,
    "humidity": 61.0,
    "pressure": 1004.0,
    "wind_speed": 3.5,
    "wind_dir": 218.0,
    "rain": 0.0,
    "timestamp_weather": "2025-06-21T14:00:00+08:00",
    "rain_now": 0.0,
    "rain_10min": 0.0,
    "rain_1hr": 0.0,
    "rain_3hr": 0.0,
    "rain_6hr": 0.0,
    "rain_12hr": 0.0,
    "rain_24hr": 0.0,
    "rain_2d": 0.0,
    "rain_3d": 10.5,
    "timestamp_rain": "2025-06-21T14:10:00+08:00",
    "stationId": "C0V910"
  },
  {
    "stationName": "國三S054K",
    "lat": 24.93917,
    "lon": 121.3239,
    "rain_now": 0.0,
    "rain_10min": 0.0,
    "rain_1hr": 0.0,
    "rain_3hr": 0.0,
    "rain_6hr": 0.0,
    "rain_12hr": 0.0,
    "rain_24hr": 0.0,
    "rain_2d": 0.0,
    "rain_3d": 0.0,
    "timestamp_rain": "2025-06-21T14:10:00+08:00",
    "weather": "多雲",
    "visibility": ">30",
    "sunshine_duration": -99.0,
    "wind_dir": 280.0,
    "wind_speed": 2.7,
    "temperature": 32.1,
    "humidity": 71.0,
    "pressure": -99.0,
    "uv_index": -99,
    "peak_gust_speed": 7.5,
    "timestamp_now": "2025-06-21T14:00:00+08:00",
    "stationId": "CAA080"
  },
  {
    "stationName": "布袋",
    "lat": 23.380864,
    "lon": 120.167778,
    "temperature": 30.9,
    "humidity": 69.0,
    "pressure": 1008.2,
    "wind_speed": 4.3,
    "wind_dir": 252.0,
    "rain": -99.0,
    "timestamp_weather": "2025-06-21T14:00:00+08:00",
    "rain_now": 0.0,
    "rain_10min": 0.0,
    "rain_1hr": 0.0,
    "rain_3hr": 0.0,
    "rain_6hr": 0.0,
    "rain_12hr": 0.0,
    "rain_24hr": 0.0,
    "rain_2d": 0.0,
    "rain_3d": 0.0,
    "timestamp_rain": "2025-06-21T14:10:00+08:00",
    "stationId": "C0M750"
  },
  {
    "stationName": "新興",
    "lat": 22.627422,
    "lon": 120.298803,
    "temperature": 32.1,
    "humidity": 67.0,
    "pressure": 1006.6,
    "wind_speed": 1.7,
    "wind_dir": 185.0,
    "rain": 0.0,
    "timestamp_weather": "2025-06-21T14:00:00+08:00",
    "rain_now": 0.0,
    "rain_10min": 0.0,
    "rain_1hr": 0.0,
    "rain_3hr": 0.0,
    "rain_6hr": 0.0,
    "rain_12hr": 0.0,
    "rain_24hr": 0.0,
    "rain_2d": 0.0,
    "rain_3d": 0.0,
    "timestamp_rain": "2025-06-21T14:10:00+08:00",
    "stationId": "C0V490"
  },
  {
    "stationName": "國三N191K",
    "lat": 24.139256,
    "lon": 120.5215,
    "rain_now": 0.0,
    "rain_10min": 0.0,
    "rain_1hr": 0.0,
    "rain_3hr": 0.0,
    "rain_6hr": 0.0,
    "rain_12hr": 0.0,
    "rain_24hr": 0.0,
    "rain_2d": 0.0,
    "rain_3d": 0.0,
    "timestamp_rain": "2025-06-21T14:10:00+08:00",
    "weather": "晴",
    "visibility": "-99",
    "sunshine_duration": -99.0,
    "wind_dir": 260.0,
    "wind_speed": 5.5,
    "temperature": 31.1,
    "humidity": 76.0,
    "pressure": -99.0,
    "uv_index": -99,
    "peak_gust_speed": 9.6,
    "timestamp_now": "2025-06-21T14:00:00+08:00",
    "stationId": "CAG040"
  },
  {
    "stationName": "香蘭",
    "lat": 22.587569,
    "lon": 120.993375,
    "temperature": -99.0,
    "humidity": -99.0,
    "pressure": -99.0,
    "wind_speed": -99.0,
    "wind_dir": -99.0,
    "rain": -99.0,
    "timestamp_weather": "2025-06-21T14:00:00+08:00",
    "stationId": "C0S960"
  },
  {
    "stationName": "天祥",
    "lat": 24.179597,
    "lon": 121.495639,
    "temperature": 27.8,
    "humidity": 71.0,
    "pressure": 951.8,
    "wind_speed": 1.1,
    "wind_dir": 118.0,
    "rain": 0.0,
    "timestamp_weather": "2025-06-21T14:00:00+08:00",
    "rain_now": 0.0,
    "rain_10min": 0.0,
    "rain_1hr": 0.0,
    "rain_3hr": 0.0,
    "rain_6hr": 0.0,
    "rain_12hr": 0.0,
    "rain_24hr": 0.0,
    "rain_2d": 0.0,
    "rain_3d": 0.5,
    "timestamp_rain": "2025-06-21T14:10:00+08:00",
    "stationId": "C0T820"
  },
  {
    "stationName": "古坑",
    "lat": 23.633639,
    "lon": 120.551889,
    "rain_now": 0.0,
    "rain_10min": 0.0,
    "rain_1hr": 0.0,
    "rain_3hr": 0.0,
    "rain_6hr": 0.0,
    "rain_12hr": 0.0,
    "rain_24hr": 23.5,
    "rain_2d": 23.5,
    "rain_3d": 23.5,
    "timestamp_rain": "2025-06-21T14:10:00+08:00",
    "weather": "多雲",
    "visibility": ">30",
    "sunshine_duration": 7.4,
    "wind_dir": 260.0,
    "wind_speed": 2.8,
    "temperature": 31.9,
    "humidity": 67.0,
    "pressure": 998.6,
    "uv_index": 6,
    "peak_gust_speed": 6.1,
    "timestamp_now": "2025-06-21T14:00:00+08:00",
    "stationId": "467290"
  },
  {
    "stationName": "國三S037K",
    "lat": 24.982361,
    "lon": 121.471042,
    "rain_now": 0.0,
    "rain_10min": 0.0,
    "rain_1hr": 0.0,
    "rain_3hr": 0.0,
    "rain_6hr": 0.0,
    "rain_12hr": 0.0,
    "rain_24hr": 22.0,
    "rain_2d": 22.0,
    "rain_3d": 22.0,
    "timestamp_rain": "2025-06-21T14:10:00+08:00",
    "weather": "多雲",
    "visibility": "-99",
    "sunshine_duration": -99.0,
    "wind_dir": 230.0,
    "wind_speed": 2.0,
    "temperature": 33.1,
    "humidity": 68.0,
    "pressure": -99.0,
    "uv_index": -99,
    "peak_gust_speed": 4.8,
    "timestamp_now": "2025-06-21T14:00:00+08:00",
    "stationId": "CAA050"
  },
  {
    "stationName": "成德中學",
    "lat": 24.789844,
    "lon": 120.952712,
    "rain_now": 0.0,
    "rain_10min": 0.0,
    "rain_1hr": 0.0,
    "rain_3hr": 0.0,
    "rain_6hr": 0.0,
    "rain_12hr": 0.0,
    "rain_24hr": 0.0,
    "rain_2d": 0.0,
    "rain_3d": 0.0,
    "timestamp_rain": "2025-06-21T14:10:00+08:00",
    "stationId": "O1D590"
  },
  {
    "stationName": "信義",
    "lat": 25.037822,
    "lon": 121.564597,
    "temperature": 32.6,
    "humidity": 69.0,
    "pressure": 999.4,
    "wind_speed": 0.4,
    "wind_dir": 281.0,
    "rain": 0.0,
    "timestamp_weather": "2025-06-21T14:00:00+08:00",
    "rain_now": 0.0,
    "rain_10min": 0.0,
    "rain_1hr": 0.0,
    "rain_3hr": 0.0,
    "rain_6hr": 0.0,
    "rain_12hr": 0.0,
    "rain_24hr": 6.0,
    "rain_2d": 6.0,
    "rain_3d": 6.0,
    "timestamp_rain": "2025-06-21T14:10:00+08:00",
    "stationId": "C0AC70"
  },
  {
    "stationName": "南寮",
    "lat": 22.761616,
    "lon": 120.233925,
    "temperature": 29.9,
    "humidity": 77.0,
    "pressure": 1008.4,
    "wind_speed": 4.7,
    "wind_dir": 227.0,
    "rain": 0.0,
    "timestamp_weather": "2025-06-21T14:00:00+08:00",
    "rain_now": 0.0,
    "rain_10min": 0.0,
    "rain_1hr": 0.0,
    "rain_3hr": 0.0,
    "rain_6hr": 0.0,
    "rain_12hr": 0.0,
    "rain_24hr": 0.0,
    "rain_2d": 0.0,
    "rain_3d": 1.5,
    "timestamp_rain": "2025-06-21T14:10:00+08:00",
    "stationId": "C0V860"
  },
  {
    "stationName": "新竹",
    "lat": 24.827853,
    "lon": 121.014219,
    "rain_now": 0.0,
    "rain_10min": 0.0,
    "rain_1hr": 0.0,
    "rain_3hr": 0.0,
    "rain_6hr": 0.0,
    "rain_12hr": 0.0,
    "rain_24hr": 0.0,
    "rain_2d": 0.0,
    "rain_3d": 0.0,
    "timestamp_rain": "2025-06-21T14:10:00+08:00",
    "weather": "多雲有雷",
    "visibility": ">30",
    "sunshine_duration": 8.0,
    "wind_dir": 280.0,
    "wind_speed": 2.1,
    "temperature": 32.0,
    "humidity": 63.0,
    "pressure": 1005.4,
    "uv_index": 9,
    "peak_gust_speed": 8.5,
    "timestamp_now": "2025-06-21T14:00:00+08:00",
    "stationId": "467571"
  },
  {
    "stationName": "大武崙",
    "lat": 25.166678,
    "lon": 121.706994,
    "temperature": 29.3,
    "humidity": 81.0,
    "pressure": 1007.6,
    "wind_speed": 5.1,
    "wind_dir": 76.0,
    "rain": 0.0,
    "timestamp_weather": "2025-06-21T14:00:00+08:00",
    "rain_now": 0.0,
    "rain_10min": 0.0,
    "rain_1hr": 0.0,
    "rain_3hr": 0.0,
    "rain_6hr": 0.0,
    "rain_12hr": 0.0,
    "rain_24hr": 0.0,
    "rain_2d": 0.0,
    "rain_3d": 0.0,
    "timestamp_rain": "2025-06-21T14:10:00+08:00",
    "stationId": "C0B040"
  },
  {
    "stationName": "和社",
    "lat": 23.591131,
    "lon": 120.888861,
    "rain_now": 0.0,
    "rain_10min": 0.0,
    "rain_1hr": 0.0,
    "rain_3hr": 0.0,
    "rain_6hr": 0.0,
    "rain_12hr": 0.0,
    "rain_24hr": 0.5,
    "rain_2d": 0.5,
    "rain_3d": 5.0,
    "timestamp_rain": "2025-06-21T14:10:00+08:00",
    "stationId": "C1I070"
  },
  {
    "stationName": "瑞芳",
    "lat": 25.113169,
    "lon": 121.801147,
    "rain_now": 0.0,
    "rain_10min": 0.0,
    "rain_1hr": 0.0,
    "rain_3hr": 0.0,
    "rain_6hr": 0.0,
    "rain_12hr": 0.0,
    "rain_24hr": 0.0,
    "rain_2d": 0.0,
    "rain_3d": 0.0,
    "timestamp_rain": "2025-06-21T14:10:00+08:00",
    "weather": "多雲",
    "visibility": "-99",
    "sunshine_duration": -99.0,
    "wind_dir": 50.0,
    "wind_speed": 1.5,
    "temperature": 32.6,
    "humidity": 67.0,
    "pressure": -99.0,
    "uv_index": -99,
    "peak_gust_speed": 4.7,
    "timestamp_now": "2025-06-21T14:00:00+08:00",
    "stationId": "C2A660"
  },
  {
    "stationName": "南屯",
    "lat": 24.137006,
    "lon": 120.637969,
    "temperature": 33.0,
    "humidity": 61.0,
    "pressure": 1000.4,
    "wind_speed": 3.2,
    "wind_dir": 289.0,
    "rain": 0.0,
    "timestamp_weather": "2025-06-21T14:00:00+08:00",
    "rain_now": 0.0,
    "rain_10min": 0.0,
    "rain_1hr": 0.0,
    "rain_3hr": 0.0,
    "rain_6hr": 0.0,
    "rain_12hr": 0.0,
    "rain_24hr": 0.0,
    "rain_2d": 0.0,
    "rain_3d": 0.0,
    "timestamp_rain": "2025-06-21T14:10:00+08:00",
    "stationId": "C0F9U0"
  },
  {
    "stationName": "大禹嶺",
    "lat": 24.186117,
    "lon": 121.316086,
    "temperature": 12.4,
    "humidity": 92.0,
    "pressure": 729.7,
    "wind_speed": 0.4,
    "wind_dir": 15.0,
    "rain": 10.5,
    "timestamp_weather": "2025-06-21T14:00:00+08:00",
    "rain_now": 11.0,
    "rain_10min": 0.5,
    "rain_1hr": 11.0,
    "rain_3hr": 11.0,
    "rain_6hr": 11.0,
    "rain_12hr": 11.0,
    "rain_24hr": 15.0,
    "rain_2d": 15.0,
    "rain_3d": 16.0,
    "timestamp_rain": "2025-06-21T14:10:00+08:00",
    "stationId": "C0T790"
  },
  {
    "stationName": "太平里",
    "lat": 25.134937,
    "lon": 121.364899,
    "temperature": 30.5,
    "humidity": 75.0,
    "pressure": 1005.8,
    "wind_speed": 5.1,
    "wind_dir": 273.0,
    "rain": 0.0,
    "timestamp_weather": "2025-06-21T14:00:00+08:00",
    "rain_now": 0.0,
    "rain_10min": 0.0,
    "rain_1hr": 0.0,
    "rain_3hr": 0.0,
    "rain_6hr": 0.0,
    "rain_12hr": 0.0,
    "rain_24hr": 0.0,
    "rain_2d": 0.0,
    "rain_3d": 0.0,
    "timestamp_rain": "2025-06-21T14:10:00+08:00",
    "stationId": "C0AK10"
  },
  {
    "stationName": "麻豆",
    "lat": 23.183289,
    "lon": 120.248611,
    "temperature": 33.4,
    "humidity": 65.0,
    "pressure": 1006.1,
    "wind_speed": 2.3,
    "wind_dir": 250.0,
    "rain": -99.0,
    "timestamp_weather": "2025-06-21T14:00:00+08:00",
    "rain_now": 0.0,
    "rain_10min": 0.0,
    "rain_1hr": 0.0,
    "rain_3hr": 0.0,
    "rain_6hr": 0.0,
    "rain_12hr": 0.0,
    "rain_24hr": 0.0,
    "rain_2d": 0.0,
    "rain_3d": 0.0,
    "timestamp_rain": "2025-06-21T14:10:00+08:00",
    "stationId": "C0X120"
  },
  {
    "stationName": "松鶴",
    "lat": 24.178889,
    "lon": 120.978333,
    "rain_now": 0.0,
    "rain_10min": 0.0,
    "rain_1hr": 0.0,
    "rain_3hr": 0.0,
    "rain_6hr": 0.0,
    "rain_12hr": 0.0,
    "rain_24hr": 1.5,
    "rain_2d": 1.5,
    "rain_3d": 26.5,
    "timestamp_rain": "2025-06-21T14:10:00+08:00",
    "stationId": "88F920"
  },
  {
    "stationName": "橋頭",
    "lat": 22.757806,
    "lon": 120.30575,
    "temperature": 32.2,
    "humidity": 61.0,
    "pressure": 1006.4,
    "wind_speed": 2.7,
    "wind_dir": 241.0,
    "rain": 0.0,
    "timestamp_weather": "2025-06-21T14:00:00+08:00",
    "rain_now": 0.0,
    "rain_10min": 0.0,
    "rain_1hr": 0.0,
    "rain_3hr": 0.0,
    "rain_6hr": 0.0,
    "rain_12hr": 0.0,
    "rain_24hr": 0.0,
    "rain_2d": 0.0,
    "rain_3d": 16.5,
    "timestamp_rain": "2025-06-21T14:10:00+08:00",
    "stationId": "C0V760"
  },
  {
    "stationName": "畜試所彰化",
    "lat": 23.86045,
    "lon": 120.557964,
    "rain_now": 0.0,
    "rain_10min": 0.0,
    "rain_1hr": 0.0,
    "rain_3hr": 0.0,
    "rain_6hr": 0.0,
    "rain_12hr": 0.0,
    "rain_24hr": 0.0,
    "rain_2d": 0.0,
    "rain_3d": 0.5,
    "timestamp_rain": "2025-06-21T14:10:00+08:00",
    "weather": "多雲",
    "visibility": "-99",
    "sunshine_duration": -99.0,
    "wind_dir": 270.0,
    "wind_speed": 2.5,
    "temperature": 34.0,
    "humidity": 61.0,
    "pressure": -99.0,
    "uv_index": -99,
    "peak_gust_speed": 5.5,
    "timestamp_now": "2025-06-21T14:00:00+08:00",
    "stationId": "C2G9A0"
  },
  {
    "stationName": "竹田",
    "lat": 22.584861,
    "lon": 120.543442,
    "temperature": 32.3,
    "humidity": 73.0,
    "pressure": 1006.1,
    "wind_speed": 3.1,
    "wind_dir": 236.0,
    "rain": 0.0,
    "timestamp_weather": "2025-06-21T14:00:00+08:00",
    "rain_now": 0.0,
    "rain_10min": 0.0,
    "rain_1hr": 0.0,
    "rain_3hr": 0.0,
    "rain_6hr": 0.0,
    "rain_12hr": 0.0,
    "rain_24hr": 0.0,
    "rain_2d": 0.0,
    "rain_3d": 6.0,
    "timestamp_rain": "2025-06-21T14:10:00+08:00",
    "stationId": "C0R650"
  },
  {
    "stationName": "豐山",
    "lat": 23.574615,
    "lon": 120.746747,
    "rain_now": 0.0,
    "rain_10min": 0.0,
    "rain_1hr": 0.0,
    "rain_3hr": 0.0,
    "rain_6hr": 0.0,
    "rain_12hr": 0.0,
    "rain_24hr": 3.0,
    "rain_2d": 3.0,
    "rain_3d": 0.0,
    "timestamp_rain": "2025-06-21T14:10:00+08:00",
    "stationId": "O1M640"
  },
  {
    "stationName": "古亭坑",
    "lat": 22.892785,
    "lon": 120.404543,
    "rain_now": 0.0,
    "rain_10min": 0.0,
    "rain_1hr": 0.0,
    "rain_3hr": 0.0,
    "rain_6hr": 0.0,
    "rain_12hr": 0.0,
    "rain_24hr": 0.0,
    "rain_2d": 0.0,
    "rain_3d": 0.0,
    "timestamp_rain": "2025-06-21T14:10:00+08:00",
    "stationId": "01P280"
  },
  {
    "stationName": "國三N336K",
    "lat": 23.154722,
    "lon": 120.345,
    "rain_now": 0.0,
    "rain_10min": 0.0,
    "rain_1hr": 0.0,
    "rain_3hr": 0.0,
    "rain_6hr": 0.0,
    "rain_12hr": 0.0,
    "rain_24hr": 0.0,
    "rain_2d": 0.0,
    "rain_3d": 0.0,
    "timestamp_rain": "2025-06-21T14:10:00+08:00",
    "weather": "晴",
    "visibility": "-99",
    "sunshine_duration": -99.0,
    "wind_dir": 250.0,
    "wind_speed": 4.0,
    "temperature": 32.7,
    "humidity": 72.0,
    "pressure": -99.0,
    "uv_index": -99,
    "peak_gust_speed": 7.5,
    "timestamp_now": "2025-06-21T14:00:00+08:00",
    "stationId": "CAN080"
  },
  {
    "stationName": "斗南",
    "lat": 23.678725,
    "lon": 120.478347,
    "temperature": 33.0,
    "humidity": 59.0,
    "pressure": 1001.4,
    "wind_speed": 3.9,
    "wind_dir": 270.0,
    "rain": 0.0,
    "timestamp_weather": "2025-06-21T14:00:00+08:00",
    "rain_now": 0.0,
    "rain_10min": 0.0,
    "rain_1hr": 0.0,
    "rain_3hr": 0.0,
    "rain_6hr": 0.0,
    "rain_12hr": 0.0,
    "rain_24hr": 0.0,
    "rain_2d": 0.0,
    "rain_3d": 0.0,
    "timestamp_rain": "2025-06-21T14:10:00+08:00",
    "stationId": "C0K460"
  },
  {
    "stationName": "奮起湖",
    "lat": 23.493903,
    "lon": 120.699253,
    "temperature": 22.8,
    "humidity": 93.0,
    "pressure": 868.4,
    "wind_speed": 0.6,
    "wind_dir": 193.0,
    "rain": 0.0,
    "timestamp_weather": "2025-06-21T14:00:00+08:00",
    "rain_now": 0.0,
    "rain_10min": 0.0,
    "rain_1hr": 0.0,
    "rain_3hr": 0.0,
    "rain_6hr": 0.0,
    "rain_12hr": 0.0,
    "rain_24hr": 13.5,
    "rain_2d": 13.5,
    "rain_3d": 29.5,
    "timestamp_rain": "2025-06-21T14:10:00+08:00",
    "stationId": "C0M530"
  },
  {
    "stationName": "東河",
    "lat": 23.296581,
    "lon": 120.385592,
    "temperature": 33.2,
    "humidity": 55.0,
    "pressure": 1005.3,
    "wind_speed": 2.5,
    "wind_dir": 205.0,
    "rain": 0.0,
    "timestamp_weather": "2025-06-21T14:00:00+08:00",
    "rain_now": 0.0,
    "rain_10min": 0.0,
    "rain_1hr": 0.0,
    "rain_3hr": 0.0,
    "rain_6hr": 0.0,
    "rain_12hr": 0.0,
    "rain_24hr": 0.0,
    "rain_2d": 0.0,
    "rain_3d": 0.0,
    "timestamp_rain": "2025-06-21T14:10:00+08:00",
    "stationId": "C0X050"
  },
  {
    "stationName": "雪霸",
    "lat": 24.526972,
    "lon": 121.11605,
    "temperature": 19.3,
    "humidity": 92.0,
    "pressure": 811.9,
    "wind_speed": 0.0,
    "wind_dir": 0.0,
    "rain": 0.5,
    "timestamp_weather": "2025-06-21T14:00:00+08:00",
    "rain_now": 0.5,
    "rain_10min": 0.0,
    "rain_1hr": 0.0,
    "rain_3hr": 0.0,
    "rain_6hr": 0.0,
    "rain_12hr": 0.5,
    "rain_24hr": 4.0,
    "rain_2d": 4.0,
    "rain_3d": 8.5,
    "timestamp_rain": "2025-06-21T14:10:00+08:00",
    "stationId": "C0D550"
  },
  {
    "stationName": "社后橋",
    "lat": 25.063288,
    "lon": 121.633793,
    "rain_now": 0.0,
    "rain_10min": 0.0,
    "rain_1hr": 0.0,
    "rain_3hr": 0.0,
    "rain_6hr": 0.0,
    "rain_12hr": 0.0,
    "rain_24hr": 0.0,
    "rain_2d": 0.0,
    "rain_3d": 0.0,
    "timestamp_rain": "2025-06-21T14:10:00+08:00",
    "stationId": "01AG00"
  },
  {
    "stationName": "水上",
    "lat": 23.419719,
    "lon": 120.388894,
    "temperature": 32.4,
    "humidity": 60.0,
    "pressure": 1004.6,
    "wind_speed": 2.7,
    "wind_dir": 255.0,
    "rain": 0.0,
    "timestamp_weather": "2025-06-21T14:00:00+08:00",
    "rain_now": 0.0,
    "rain_10min": 0.0,
    "rain_1hr": 0.0,
    "rain_3hr": 0.0,
    "rain_6hr": 0.0,
    "rain_12hr": 0.0,
    "rain_24hr": 0.0,
    "rain_2d": 0.0,
    "rain_3d": 0.0,
    "timestamp_rain": "2025-06-21T14:10:00+08:00",
    "stationId": "C0M690"
  },
  {
    "stationName": "翠巒",
    "lat": 24.182576,
    "lon": 121.203514,
    "rain_now": 0.0,
    "rain_10min": 0.0,
    "rain_1hr": 0.0,
    "rain_3hr": 0.0,
    "rain_6hr": 0.0,
    "rain_12hr": 0.0,
    "rain_24hr": 8.0,
    "rain_2d": 8.0,
    "rain_3d": 11.0,
    "timestamp_rain": "2025-06-21T14:10:00+08:00",
    "stationId": "01H210"
  },
  {
    "stationName": "杉林溪",
    "lat": 23.639517,
    "lon": 120.786444,
    "rain_now": 0.5,
    "rain_10min": 0.0,
    "rain_1hr": 0.0,
    "rain_3hr": 0.0,
    "rain_6hr": 0.0,
    "rain_12hr": 0.0,
    "rain_24hr": 8.5,
    "rain_2d": 9.5,
    "rain_3d": 32.5,
    "timestamp_rain": "2025-06-21T14:10:00+08:00",
    "stationId": "C1I470"
  },
  {
    "stationName": "向陽",
    "lat": 23.248397,
    "lon": 120.986133,
    "temperature": 18.6,
    "humidity": 89.0,
    "pressure": 774.3,
    "wind_speed": 0.2,
    "wind_dir": 0.0,
    "rain": -99.0,
    "timestamp_weather": "2025-06-21T14:00:00+08:00",
    "stationId": "C0S750"
  },
  {
    "stationName": "水源",
    "lat": 23.991861,
    "lon": 121.537169,
    "temperature": 26.3,
    "humidity": 88.0,
    "pressure": 949.1,
    "wind_speed": 0.3,
    "wind_dir": 61.0,
    "rain": 0.0,
    "timestamp_weather": "2025-06-21T14:00:00+08:00",
    "rain_now": 0.0,
    "rain_10min": 0.0,
    "rain_1hr": 0.0,
    "rain_3hr": 0.0,
    "rain_6hr": 0.0,
    "rain_12hr": 0.0,
    "rain_24hr": 2.5,
    "rain_2d": 2.5,
    "rain_3d": 2.5,
    "timestamp_rain": "2025-06-21T14:10:00+08:00",
    "stationId": "C0T9B0"
  },
  {
    "stationName": "溪口",
    "lat": 23.604119,
    "lon": 120.403556,
    "temperature": 31.7,
    "humidity": 60.0,
    "pressure": 1005.1,
    "wind_speed": 6.3,
    "wind_dir": 261.0,
    "rain": 0.0,
    "timestamp_weather": "2025-06-21T14:00:00+08:00",
    "rain_now": 0.0,
    "rain_10min": 0.0,
    "rain_1hr": 0.0,
    "rain_3hr": 0.0,
    "rain_6hr": 0.0,
    "rain_12hr": 0.0,
    "rain_24hr": 0.0,
    "rain_2d": 0.0,
    "rain_3d": 0.0,
    "timestamp_rain": "2025-06-21T14:10:00+08:00",
    "stationId": "C0M660"
  },
  {
    "stationName": "知本(5)",
    "lat": 22.690878,
    "lon": 120.99909,
    "rain_now": 1.0,
    "rain_10min": 0.0,
    "rain_1hr": 0.0,
    "rain_3hr": 0.0,
    "rain_6hr": 0.0,
    "rain_12hr": 0.0,
    "rain_24hr": 3.0,
    "rain_2d": 3.0,
    "rain_3d": 3.0,
    "timestamp_rain": "2025-06-21T14:10:00+08:00",
    "stationId": "01S210"
  },
  {
    "stationName": "中平林道",
    "lat": 23.421147,
    "lon": 121.267631,
    "rain_now": 0.0,
    "rain_10min": 0.0,
    "rain_1hr": 0.0,
    "rain_3hr": 0.0,
    "rain_6hr": 0.0,
    "rain_12hr": 0.0,
    "rain_24hr": 0.0,
    "rain_2d": 0.0,
    "rain_3d": 2.0,
    "timestamp_rain": "2025-06-21T14:10:00+08:00",
    "stationId": "C1Z240"
  },
  {
    "stationName": "國一N174K",
    "lat": 24.2049,
    "lon": 120.6552,
    "rain_now": 0.0,
    "rain_10min": 0.0,
    "rain_1hr": 0.0,
    "rain_3hr": 0.0,
    "rain_6hr": 0.0,
    "rain_12hr": 0.0,
    "rain_24hr": 0.0,
    "rain_2d": 0.0,
    "rain_3d": 0.0,
    "timestamp_rain": "2025-06-21T14:10:00+08:00",
    "weather": "晴",
    "visibility": ">30",
    "sunshine_duration": -99.0,
    "wind_dir": 260.0,
    "wind_speed": 4.8,
    "temperature": 31.8,
    "humidity": 74.0,
    "pressure": -99.0,
    "uv_index": -99,
    "peak_gust_speed": 8.4,
    "timestamp_now": "2025-06-21T14:00:00+08:00",
    "stationId": "CAF010"
  },
  {
    "stationName": "竹塘",
    "lat": 23.848253,
    "lon": 120.386764,
    "temperature": 34.1,
    "humidity": 59.0,
    "pressure": 1007.5,
    "wind_speed": 0.6,
    "wind_dir": 257.0,
    "rain": 0.0,
    "timestamp_weather": "2025-06-21T14:00:00+08:00",
    "rain_now": 0.0,
    "rain_10min": 0.0,
    "rain_1hr": 0.0,
    "rain_3hr": 0.0,
    "rain_6hr": 0.0,
    "rain_12hr": 0.0,
    "rain_24hr": 0.0,
    "rain_2d": 0.0,
    "rain_3d": 0.0,
    "timestamp_rain": "2025-06-21T14:10:00+08:00",
    "stationId": "C0G940"
  },
  {
    "stationName": "城西",
    "lat": 23.056805,
    "lon": 120.095569,
    "temperature": 30.6,
    "humidity": 72.0,
    "pressure": 1007.0,
    "wind_speed": 4.6,
    "wind_dir": 213.0,
    "rain": 0.0,
    "timestamp_weather": "2025-06-21T14:00:00+08:00",
    "rain_now": 0.0,
    "rain_10min": 0.0,
    "rain_1hr": 0.0,
    "rain_3hr": 0.0,
    "rain_6hr": 0.0,
    "rain_12hr": 0.0,
    "rain_24hr": 0.0,
    "rain_2d": 0.0,
    "rain_3d": 0.0,
    "timestamp_rain": "2025-06-21T14:10:00+08:00",
    "stationId": "C0N020"
  },
  {
    "stationName": "上谷關",
    "lat": 24.203483,
    "lon": 121.018644,
    "rain_now": 0.0,
    "rain_10min": 0.0,
    "rain_1hr": 0.0,
    "rain_3hr": 0.0,
    "rain_6hr": 0.0,
    "rain_12hr": 0.0,
    "rain_24hr": 7.5,
    "rain_2d": 7.5,
    "rain_3d": 21.0,
    "timestamp_rain": "2025-06-21T14:10:00+08:00",
    "stationId": "C1F871"
  },
  {
    "stationName": "蘇樂",
    "lat": 24.700595,
    "lon": 121.356813,
    "rain_now": 0.0,
    "rain_10min": 0.0,
    "rain_1hr": 0.0,
    "rain_3hr": 0.0,
    "rain_6hr": 0.0,
    "rain_12hr": 0.0,
    "rain_24hr": 2.5,
    "rain_2d": 3.0,
    "rain_3d": 5.5,
    "timestamp_rain": "2025-06-21T14:10:00+08:00",
    "stationId": "88C690"
  },
  {
    "stationName": "國一S114K",
    "lat": 24.668836,
    "lon": 120.885811,
    "rain_now": 0.0,
    "rain_10min": 0.0,
    "rain_1hr": 0.0,
    "rain_3hr": 0.0,
    "rain_6hr": 0.0,
    "rain_12hr": 0.0,
    "rain_24hr": 0.0,
    "rain_2d": 0.0,
    "rain_3d": 0.0,
    "timestamp_rain": "2025-06-21T14:10:00+08:00",
    "weather": "多雲",
    "visibility": "-99",
    "sunshine_duration": -99.0,
    "wind_dir": 260.0,
    "wind_speed": 5.3,
    "temperature": 30.8,
    "humidity": 73.0,
    "pressure": -99.0,
    "uv_index": -99,
    "peak_gust_speed": 9.1,
    "timestamp_now": "2025-06-21T14:00:00+08:00",
    "stationId": "CAE020"
  },
  {
    "stationName": "永樂國小",
    "lat": 24.575833,
    "lon": 121.844167,
    "rain_now": 0.0,
    "rain_10min": 0.0,
    "rain_1hr": 0.0,
    "rain_3hr": 0.0,
    "rain_6hr": 0.0,
    "rain_12hr": 0.0,
    "rain_24hr": 0.0,
    "rain_2d": 0.0,
    "rain_3d": 0.0,
    "timestamp_rain": "2025-06-21T14:10:00+08:00",
    "stationId": "81U910"
  },
  {
    "stationName": "國三S329K",
    "lat": 23.212777,
    "lon": 120.355833,
    "rain_now": 0.0,
    "rain_10min": 0.0,
    "rain_1hr": 0.0,
    "rain_3hr": 0.0,
    "rain_6hr": 0.0,
    "rain_12hr": 0.0,
    "rain_24hr": 0.0,
    "rain_2d": 0.0,
    "rain_3d": 0.0,
    "timestamp_rain": "2025-06-21T14:10:00+08:00",
    "weather": "多雲",
    "visibility": ">30",
    "sunshine_duration": -99.0,
    "wind_dir": 260.0,
    "wind_speed": 3.6,
    "temperature": 31.8,
    "humidity": 75.0,
    "pressure": -99.0,
    "uv_index": -99,
    "peak_gust_speed": 7.5,
    "timestamp_now": "2025-06-21T14:00:00+08:00",
    "stationId": "CAN070"
  },
  {
    "stationName": "五股",
    "lat": 25.074453,
    "lon": 121.427281,
    "temperature": 32.6,
    "humidity": 66.0,
    "pressure": 988.1,
    "wind_speed": 2.5,
    "wind_dir": 281.0,
    "rain": -99.0,
    "timestamp_weather": "2025-06-21T14:00:00+08:00",
    "rain_now": 0.0,
    "rain_10min": 0.0,
    "rain_1hr": 0.0,
    "rain_3hr": 0.0,
    "rain_6hr": 0.0,
    "rain_12hr": 0.0,
    "rain_24hr": 0.0,
    "rain_2d": 0.0,
    "rain_3d": 0.0,
    "timestamp_rain": "2025-06-21T14:10:00+08:00",
    "stationId": "C0AI00"
  },
  {
    "stationName": "高樹",
    "lat": 22.826389,
    "lon": 120.600806,
    "temperature": 32.9,
    "humidity": 63.0,
    "pressure": 998.3,
    "wind_speed": 2.5,
    "wind_dir": 262.0,
    "rain": 0.0,
    "timestamp_weather": "2025-06-21T14:00:00+08:00",
    "rain_now": 0.0,
    "rain_10min": 0.0,
    "rain_1hr": 0.0,
    "rain_3hr": 0.0,
    "rain_6hr": 0.0,
    "rain_12hr": 0.0,
    "rain_24hr": 1.5,
    "rain_2d": 1.5,
    "rain_3d": 1.5,
    "timestamp_rain": "2025-06-21T14:10:00+08:00",
    "stationId": "C0R470"
  },
  {
    "stationName": "國一S336K",
    "lat": 22.894167,
    "lon": 120.271178,
    "rain_now": 0.5,
    "rain_10min": 0.0,
    "rain_1hr": 0.0,
    "rain_3hr": 0.0,
    "rain_6hr": 0.0,
    "rain_12hr": 0.5,
    "rain_24hr": 0.5,
    "rain_2d": 0.5,
    "rain_3d": 14.5,
    "timestamp_rain": "2025-06-21T14:10:00+08:00",
    "weather": "晴",
    "visibility": ">30",
    "sunshine_duration": -99.0,
    "wind_dir": 230.0,
    "wind_speed": 4.5,
    "temperature": 31.2,
    "humidity": 67.0,
    "pressure": -99.0,
    "uv_index": -99,
    "peak_gust_speed": 8.1,
    "timestamp_now": "2025-06-21T14:00:00+08:00",
    "stationId": "CAV270"
  },
  {
    "stationName": "雪山橋",
    "lat": 24.23192,
    "lon": 120.9786,
    "temperature": 20.5,
    "humidity": 82.0,
    "pressure": 803.0,
    "wind_speed": 0.8,
    "wind_dir": 86.0,
    "rain": 0.0,
    "timestamp_weather": "2025-06-21T14:00:00+08:00",
    "rain_now": 0.0,
    "rain_10min": 0.0,
    "rain_1hr": 0.0,
    "rain_3hr": 0.0,
    "rain_6hr": 0.0,
    "rain_12hr": 0.0,
    "rain_24hr": 1.0,
    "rain_2d": 1.0,
    "rain_3d": 5.5,
    "timestamp_rain": "2025-06-21T14:10:00+08:00",
    "stationId": "C0FB20"
  },
  {
    "stationName": "加祿堂",
    "lat": 22.336306,
    "lon": 120.621722,
    "temperature": 30.5,
    "humidity": 66.0,
    "pressure": 1006.6,
    "wind_speed": 4.3,
    "wind_dir": 208.0,
    "rain": 0.0,
    "timestamp_weather": "2025-06-21T14:00:00+08:00",
    "rain_now": 0.0,
    "rain_10min": 0.0,
    "rain_1hr": 0.0,
    "rain_3hr": 0.0,
    "rain_6hr": 0.0,
    "rain_12hr": 0.0,
    "rain_24hr": 0.0,
    "rain_2d": 0.0,
    "rain_3d": 0.0,
    "timestamp_rain": "2025-06-21T14:10:00+08:00",
    "stationId": "C0R940"
  },
  {
    "stationName": "太和村",
    "lat": 23.535556,
    "lon": 120.708889,
    "rain_now": 0.5,
    "rain_10min": 0.0,
    "rain_1hr": 0.0,
    "rain_3hr": 0.0,
    "rain_6hr": 0.0,
    "rain_12hr": 0.0,
    "rain_24hr": 23.0,
    "rain_2d": 23.0,
    "rain_3d": 66.5,
    "timestamp_rain": "2025-06-21T14:10:00+08:00",
    "stationId": "81M680"
  },
  {
    "stationName": "西濱S129K",
    "lat": 24.4472,
    "lon": 120.6428,
    "rain_now": 0.0,
    "rain_10min": 0.0,
    "rain_1hr": 0.0,
    "rain_3hr": 0.0,
    "rain_6hr": 0.0,
    "rain_12hr": 0.0,
    "rain_24hr": 0.0,
    "rain_2d": 0.0,
    "rain_3d": 0.0,
    "timestamp_rain": "2025-06-21T14:10:00+08:00",
    "weather": "晴",
    "visibility": ">30",
    "sunshine_duration": -99.0,
    "wind_dir": 240.0,
    "wind_speed": 6.5,
    "temperature": 29.5,
    "humidity": 77.0,
    "pressure": -99.0,
    "uv_index": -99,
    "peak_gust_speed": 9.8,
    "timestamp_now": "2025-06-21T14:00:00+08:00",
    "stationId": "CAE110"
  },
  {
    "stationName": "潭子",
    "lat": 24.213106,
    "lon": 120.703933,
    "temperature": 33.4,
    "humidity": 66.0,
    "pressure": 988.2,
    "wind_speed": 2.3,
    "wind_dir": 259.0,
    "rain": 0.0,
    "timestamp_weather": "2025-06-21T14:00:00+08:00",
    "rain_now": 0.0,
    "rain_10min": 0.0,
    "rain_1hr": 0.0,
    "rain_3hr": 0.0,
    "rain_6hr": 0.0,
    "rain_12hr": 0.0,
    "rain_24hr": 0.0,
    "rain_2d": 0.0,
    "rain_3d": 0.0,
    "timestamp_rain": "2025-06-21T14:10:00+08:00",
    "stationId": "C0F9O0"
  },
  {
    "stationName": "和中",
    "lat": 24.266761,
    "lon": 121.741031,
    "temperature": 31.3,
    "humidity": 100.0,
    "pressure": 1007.9,
    "wind_speed": 1.9,
    "wind_dir": 263.0,
    "rain": 0.0,
    "timestamp_weather": "2025-06-21T14:00:00+08:00",
    "rain_now": 0.0,
    "rain_10min": 0.0,
    "rain_1hr": 0.0,
    "rain_3hr": 0.0,
    "rain_6hr": 0.0,
    "rain_12hr": 0.0,
    "rain_24hr": 0.0,
    "rain_2d": 0.0,
    "rain_3d": 0.0,
    "timestamp_rain": "2025-06-21T14:10:00+08:00",
    "stationId": "C0T9D0"
  },
  {
    "stationName": "吉林國小",
    "lat": 24.985827,
    "lon": 121.887489,
    "rain_now": 0.0,
    "rain_10min": 0.0,
    "rain_1hr": 0.0,
    "rain_3hr": 0.0,
    "rain_6hr": 0.0,
    "rain_12hr": 0.0,
    "rain_24hr": 0.0,
    "rain_2d": 0.0,
    "rain_3d": 0.0,
    "timestamp_rain": "2025-06-21T14:10:00+08:00",
    "stationId": "O1AH30"
  },
  {
    "stationName": "靜浦",
    "lat": 23.455167,
    "lon": 121.495028,
    "temperature": 30.4,
    "humidity": 83.0,
    "pressure": 999.3,
    "wind_speed": 5.1,
    "wind_dir": 161.0,
    "rain": 0.0,
    "timestamp_weather": "2025-06-21T14:00:00+08:00",
    "rain_now": 0.0,
    "rain_10min": 0.0,
    "rain_1hr": 0.0,
    "rain_3hr": 0.0,
    "rain_6hr": 0.0,
    "rain_12hr": 0.0,
    "rain_24hr": 0.0,
    "rain_2d": 0.0,
    "rain_3d": 0.0,
    "timestamp_rain": "2025-06-21T14:10:00+08:00",
    "stationId": "C0T9M0"
  },
  {
    "stationName": "發祥",
    "lat": 24.154094,
    "lon": 121.164517,
    "rain_now": 0.5,
    "rain_10min": 0.0,
    "rain_1hr": 0.0,
    "rain_3hr": 0.0,
    "rain_6hr": 0.0,
    "rain_12hr": 0.0,
    "rain_24hr": 2.5,
    "rain_2d": 2.5,
    "rain_3d": 2.5,
    "timestamp_rain": "2025-06-21T14:10:00+08:00",
    "weather": "陰",
    "visibility": "-99",
    "sunshine_duration": -99.0,
    "wind_dir": 110.0,
    "wind_speed": 1.8,
    "temperature": 25.8,
    "humidity": 59.0,
    "pressure": -99.0,
    "uv_index": -99,
    "peak_gust_speed": 6.0,
    "timestamp_now": "2025-06-21T14:00:00+08:00",
    "stationId": "C2H9M0"
  },
  {
    "stationName": "大津",
    "lat": 22.888322,
    "lon": 120.645986,
    "rain_now": 0.0,
    "rain_10min": 0.0,
    "rain_1hr": 0.0,
    "rain_3hr": 0.0,
    "rain_6hr": 0.0,
    "rain_12hr": 0.0,
    "rain_24hr": 29.0,
    "rain_2d": 29.0,
    "rain_3d": 29.0,
    "timestamp_rain": "2025-06-21T14:10:00+08:00",
    "stationId": "C1V340"
  },
  {
    "stationName": "龍鳳",
    "lat": 24.700036,
    "lon": 120.859128,
    "temperature": 32.9,
    "humidity": 73.0,
    "pressure": 1007.9,
    "wind_speed": 2.8,
    "wind_dir": 254.0,
    "rain": 0.0,
    "timestamp_weather": "2025-06-21T14:00:00+08:00",
    "rain_now": 0.0,
    "rain_10min": 0.0,
    "rain_1hr": 0.0,
    "rain_3hr": 0.0,
    "rain_6hr": 0.0,
    "rain_12hr": 0.0,
    "rain_24hr": 0.0,
    "rain_2d": 0.0,
    "rain_3d": 0.0,
    "timestamp_rain": "2025-06-21T14:10:00+08:00",
    "stationId": "C0E930"
  },
  {
    "stationName": "三和國小",
    "lat": 22.67206,
    "lon": 121.037516,
    "rain_now": 0.0,
    "rain_10min": 0.0,
    "rain_1hr": 0.0,
    "rain_3hr": 0.0,
    "rain_6hr": 0.0,
    "rain_12hr": 0.0,
    "rain_24hr": 1.0,
    "rain_2d": 1.0,
    "rain_3d": 1.0,
    "timestamp_rain": "2025-06-21T14:10:00+08:00",
    "stationId": "81S560"
  },
  {
    "stationName": "硬漢嶺",
    "lat": 25.136097,
    "lon": 121.426372,
    "temperature": 25.5,
    "humidity": 94.0,
    "pressure": 942.5,
    "wind_speed": 5.8,
    "wind_dir": 294.0,
    "rain": 0.0,
    "timestamp_weather": "2025-06-21T14:00:00+08:00",
    "rain_now": 0.0,
    "rain_10min": 0.0,
    "rain_1hr": 0.0,
    "rain_3hr": 0.0,
    "rain_6hr": 0.0,
    "rain_12hr": 0.0,
    "rain_24hr": 0.0,
    "rain_2d": 0.0,
    "rain_3d": 0.0,
    "timestamp_rain": "2025-06-21T14:10:00+08:00",
    "stationId": "C0AK30"
  },
  {
    "stationName": "官田",
    "lat": 23.193217,
    "lon": 120.315422,
    "temperature": 33.4,
    "humidity": 60.0,
    "pressure": 1005.9,
    "wind_speed": 3.2,
    "wind_dir": 272.0,
    "rain": 0.0,
    "timestamp_weather": "2025-06-21T14:00:00+08:00",
    "rain_now": 0.0,
    "rain_10min": 0.0,
    "rain_1hr": 0.0,
    "rain_3hr": 0.0,
    "rain_6hr": 0.0,
    "rain_12hr": 0.0,
    "rain_24hr": 0.0,
    "rain_2d": 0.0,
    "rain_3d": 0.0,
    "timestamp_rain": "2025-06-21T14:10:00+08:00",
    "stationId": "C0X130"
  },
  {
    "stationName": "豐丘",
    "lat": 23.668178,
    "lon": 120.887417,
    "rain_now": 0.0,
    "rain_10min": 0.0,
    "rain_1hr": 0.0,
    "rain_3hr": 0.0,
    "rain_6hr": 0.0,
    "rain_12hr": 0.0,
    "rain_24hr": 0.5,
    "rain_2d": 0.5,
    "rain_3d": 12.0,
    "timestamp_rain": "2025-06-21T14:10:00+08:00",
    "stationId": "C1I290"
  },
  {
    "stationName": "審馬陣",
    "lat": 24.381675,
    "lon": 121.4203,
    "temperature": 12.2,
    "humidity": 94.0,
    "pressure": 700.5,
    "wind_speed": -99.0,
    "wind_dir": -99.0,
    "rain": -99.0,
    "timestamp_weather": "2025-06-21T14:00:00+08:00",
    "rain_now": 0.0,
    "rain_10min": 0.0,
    "rain_1hr": 0.0,
    "rain_3hr": 0.0,
    "rain_6hr": 0.0,
    "rain_12hr": 0.0,
    "rain_24hr": 8.0,
    "rain_2d": 9.5,
    "rain_3d": 11.0,
    "timestamp_rain": "2025-06-21T14:10:00+08:00",
    "stationId": "C0F0D0"
  },
  {
    "stationName": "尖山",
    "lat": 22.813153,
    "lon": 120.367789,
    "rain_now": 0.0,
    "rain_10min": 0.0,
    "rain_1hr": 0.0,
    "rain_3hr": 0.0,
    "rain_6hr": 0.0,
    "rain_12hr": 0.0,
    "rain_24hr": 0.0,
    "rain_2d": 0.0,
    "rain_3d": 3.0,
    "timestamp_rain": "2025-06-21T14:10:00+08:00",
    "stationId": "C1V390"
  },
  {
    "stationName": "三峽",
    "lat": 24.938878,
    "lon": 121.355555,
    "rain_now": 0.0,
    "rain_10min": 0.0,
    "rain_1hr": 0.0,
    "rain_3hr": 0.0,
    "rain_6hr": 0.0,
    "rain_12hr": 0.0,
    "rain_24hr": 1.0,
    "rain_2d": 1.0,
    "rain_3d": 1.0,
    "timestamp_rain": "2025-06-21T14:10:00+08:00",
    "stationId": "01A220"
  },
  {
    "stationName": "溪南(特)",
    "lat": 23.084972,
    "lon": 120.788475,
    "rain_now": 0.0,
    "rain_10min": 0.0,
    "rain_1hr": 0.0,
    "rain_3hr": 0.0,
    "rain_6hr": 0.0,
    "rain_12hr": 0.0,
    "rain_24hr": 0.0,
    "rain_2d": 0.0,
    "rain_3d": 0.0,
    "timestamp_rain": "2025-06-21T14:10:00+08:00",
    "stationId": "C1V580"
  },
  {
    "stationName": "中台",
    "lat": 23.9996,
    "lon": 120.938739,
    "rain_now": 0.0,
    "rain_10min": 0.0,
    "rain_1hr": 0.0,
    "rain_3hr": 0.0,
    "rain_6hr": 0.0,
    "rain_12hr": 0.0,
    "rain_24hr": 0.5,
    "rain_2d": 0.5,
    "rain_3d": 4.5,
    "timestamp_rain": "2025-06-21T14:10:00+08:00",
    "weather": "多雲",
    "visibility": "-99",
    "sunshine_duration": -99.0,
    "wind_dir": 260.0,
    "wind_speed": 2.4,
    "temperature": 32.3,
    "humidity": 55.0,
    "pressure": -99.0,
    "uv_index": -99,
    "peak_gust_speed": 5.0,
    "timestamp_now": "2025-06-21T14:00:00+08:00",
    "stationId": "C2H9J0"
  },
  {
    "stationName": "龍溪",
    "lat": 24.606489,
    "lon": 120.783933,
    "rain_now": 0.0,
    "rain_10min": 0.0,
    "rain_1hr": 0.0,
    "rain_3hr": 0.0,
    "rain_6hr": 0.0,
    "rain_12hr": 0.0,
    "rain_24hr": 0.0,
    "rain_2d": 0.0,
    "rain_3d": 0.0,
    "timestamp_rain": "2025-06-21T14:10:00+08:00",
    "weather": "晴",
    "visibility": "-99",
    "sunshine_duration": -99.0,
    "wind_dir": 240.0,
    "wind_speed": 2.2,
    "temperature": 33.5,
    "humidity": 62.0,
    "pressure": -99.0,
    "uv_index": -99,
    "peak_gust_speed": 7.0,
    "timestamp_now": "2025-06-21T14:00:00+08:00",
    "stationId": "C2E540"
  },
  {
    "stationName": "太魯閣",
    "lat": 24.157728,
    "lon": 121.623597,
    "rain_now": 0.0,
    "rain_10min": 0.0,
    "rain_1hr": 0.0,
    "rain_3hr": 0.0,
    "rain_6hr": 0.0,
    "rain_12hr": 0.0,
    "rain_24hr": 5.0,
    "rain_2d": 5.0,
    "rain_3d": 5.0,
    "timestamp_rain": "2025-06-21T14:10:00+08:00",
    "stationId": "C1TA00"
  },
  {
    "stationName": "五峰",
    "lat": 24.829997,
    "lon": 121.748477,
    "rain_now": 0.0,
    "rain_10min": 0.0,
    "rain_1hr": 0.0,
    "rain_3hr": 0.0,
    "rain_6hr": 0.0,
    "rain_12hr": 0.0,
    "rain_24hr": 24.0,
    "rain_2d": 24.0,
    "rain_3d": 24.0,
    "timestamp_rain": "2025-06-21T14:10:00+08:00",
    "stationId": "01U460"
  },
  {
    "stationName": "高中",
    "lat": 23.134911,
    "lon": 120.716711,
    "rain_now": 0.0,
    "rain_10min": 0.0,
    "rain_1hr": 0.0,
    "rain_3hr": 0.0,
    "rain_6hr": 0.0,
    "rain_12hr": 0.0,
    "rain_24hr": 0.0,
    "rain_2d": 0.0,
    "rain_3d": 0.5,
    "timestamp_rain": "2025-06-21T14:10:00+08:00",
    "stationId": "C1V231"
  },
  {
    "stationName": "七股研究中心",
    "lat": 23.081672,
    "lon": 120.062894,
    "rain_now": 0.0,
    "rain_10min": 0.0,
    "rain_1hr": 0.0,
    "rain_3hr": 0.0,
    "rain_6hr": 0.0,
    "rain_12hr": 0.0,
    "rain_24hr": 0.0,
    "rain_2d": 0.0,
    "rain_3d": 0.0,
    "timestamp_rain": "2025-06-21T14:10:00+08:00",
    "weather": "晴",
    "visibility": "-99",
    "sunshine_duration": -99.0,
    "wind_dir": 230.0,
    "wind_speed": 3.7,
    "temperature": 32.1,
    "humidity": 69.0,
    "pressure": -99.0,
    "uv_index": -99,
    "peak_gust_speed": 6.6,
    "timestamp_now": "2025-06-21T14:00:00+08:00",
    "stationId": "72N240"
  },
  {
    "stationName": "善化",
    "lat": 23.112883,
    "lon": 120.297219,
    "temperature": 33.0,
    "humidity": 72.0,
    "pressure": 1008.4,
    "wind_speed": 3.4,
    "wind_dir": 266.0,
    "rain": 0.0,
    "timestamp_weather": "2025-06-21T14:00:00+08:00",
    "rain_now": 0.0,
    "rain_10min": 0.0,
    "rain_1hr": 0.0,
    "rain_3hr": 0.0,
    "rain_6hr": 0.0,
    "rain_12hr": 0.0,
    "rain_24hr": 0.0,
    "rain_2d": 0.0,
    "rain_3d": 0.0,
    "timestamp_rain": "2025-06-21T14:10:00+08:00",
    "stationId": "C0O900"
  },
  {
    "stationName": "嘉義",
    "lat": 23.495925,
    "lon": 120.432906,
    "rain_now": 0.0,
    "rain_10min": 0.0,
    "rain_1hr": 0.0,
    "rain_3hr": 0.0,
    "rain_6hr": 0.0,
    "rain_12hr": 0.0,
    "rain_24hr": 0.0,
    "rain_2d": 0.0,
    "rain_3d": 0.0,
    "timestamp_rain": "2025-06-21T14:10:00+08:00",
    "weather": "多雲",
    "visibility": ">30",
    "sunshine_duration": 7.5,
    "wind_dir": 270.0,
    "wind_speed": 5.1,
    "temperature": 33.0,
    "humidity": 64.0,
    "pressure": 1005.5,
    "uv_index": 10,
    "peak_gust_speed": 9.4,
    "timestamp_now": "2025-06-21T14:00:00+08:00",
    "stationId": "467480"
  },
  {
    "stationName": "天池",
    "lat": 23.277581,
    "lon": 120.916901,
    "rain_now": 0.0,
    "rain_10min": 0.0,
    "rain_1hr": 0.0,
    "rain_3hr": 0.0,
    "rain_6hr": 0.0,
    "rain_12hr": 0.0,
    "rain_24hr": 0.0,
    "rain_2d": 0.0,
    "rain_3d": 0.0,
    "timestamp_rain": "2025-06-21T14:10:00+08:00",
    "stationId": "01V070"
  },
  {
    "stationName": "國一S132K",
    "lat": 24.524506,
    "lon": 120.820831,
    "rain_now": 0.0,
    "rain_10min": 0.0,
    "rain_1hr": 0.0,
    "rain_3hr": 0.0,
    "rain_6hr": 0.0,
    "rain_12hr": 0.0,
    "rain_24hr": 0.0,
    "rain_2d": 0.0,
    "rain_3d": 0.0,
    "timestamp_rain": "2025-06-21T14:10:00+08:00",
    "weather": "多雲",
    "visibility": "7-10",
    "sunshine_duration": -99.0,
    "wind_dir": 290.0,
    "wind_speed": 4.0,
    "temperature": 31.1,
    "humidity": 72.0,
    "pressure": -99.0,
    "uv_index": -99,
    "peak_gust_speed": 9.1,
    "timestamp_now": "2025-06-21T14:00:00+08:00",
    "stationId": "CAE040"
  },
  {
    "stationName": "桶後",
    "lat": 24.848222,
    "lon": 121.597992,
    "temperature": 31.0,
    "humidity": 68.0,
    "pressure": 967.8,
    "wind_speed": 0.0,
    "wind_dir": 0.0,
    "rain": 0.0,
    "timestamp_weather": "2025-06-21T14:00:00+08:00",
    "rain_now": 0.0,
    "rain_10min": 0.0,
    "rain_1hr": 0.0,
    "rain_3hr": 0.0,
    "rain_6hr": 0.0,
    "rain_12hr": 0.0,
    "rain_24hr": 2.0,
    "rain_2d": 2.0,
    "rain_3d": 2.0,
    "timestamp_rain": "2025-06-21T14:10:00+08:00",
    "stationId": "C0A570"
  },
  {
    "stationName": "瑞穗林道",
    "lat": 23.492842,
    "lon": 121.306883,
    "temperature": 25.1,
    "humidity": 95.0,
    "pressure": 888.4,
    "wind_speed": 0.3,
    "wind_dir": 130.0,
    "rain": 0.0,
    "timestamp_weather": "2025-06-21T14:00:00+08:00",
    "rain_now": 0.0,
    "rain_10min": 0.0,
    "rain_1hr": 0.0,
    "rain_3hr": 0.0,
    "rain_6hr": 0.0,
    "rain_12hr": 0.0,
    "rain_24hr": 0.0,
    "rain_2d": 0.0,
    "rain_3d": 0.0,
    "timestamp_rain": "2025-06-21T14:10:00+08:00",
    "stationId": "C0Z250"
  },
  {
    "stationName": "高士",
    "lat": 22.121825,
    "lon": 120.836781,
    "temperature": 30.0,
    "humidity": 64.0,
    "pressure": 966.4,
    "wind_speed": 1.9,
    "wind_dir": 109.0,
    "rain": 0.0,
    "timestamp_weather": "2025-06-21T14:00:00+08:00",
    "rain_now": 0.0,
    "rain_10min": 0.0,
    "rain_1hr": 0.0,
    "rain_3hr": 0.0,
    "rain_6hr": 0.0,
    "rain_12hr": 0.0,
    "rain_24hr": 0.5,
    "rain_2d": 0.5,
    "rain_3d": 24.5,
    "timestamp_rain": "2025-06-21T14:10:00+08:00",
    "stationId": "C0R830"
  },
  {
    "stationName": "大溪國小",
    "lat": 24.935556,
    "lon": 121.886944,
    "rain_now": 0.0,
    "rain_10min": 0.0,
    "rain_1hr": 0.0,
    "rain_3hr": 0.0,
    "rain_6hr": 0.0,
    "rain_12hr": 0.0,
    "rain_24hr": 0.0,
    "rain_2d": 0.0,
    "rain_3d": 0.0,
    "timestamp_rain": "2025-06-21T14:10:00+08:00",
    "stationId": "81U900"
  },
  {
    "stationName": "樂水分校",
    "lat": 24.600282,
    "lon": 121.529309,
    "rain_now": 0.0,
    "rain_10min": 0.0,
    "rain_1hr": 0.0,
    "rain_3hr": 0.0,
    "rain_6hr": 0.0,
    "rain_12hr": 0.0,
    "rain_24hr": 8.0,
    "rain_2d": 8.0,
    "rain_3d": 8.0,
    "timestamp_rain": "2025-06-21T14:10:00+08:00",
    "stationId": "81U870"
  },
  {
    "stationName": "國一S082K",
    "lat": 24.87667,
    "lon": 121.0467,
    "rain_now": 0.0,
    "rain_10min": 0.0,
    "rain_1hr": 0.0,
    "rain_3hr": 0.0,
    "rain_6hr": 0.0,
    "rain_12hr": 0.0,
    "rain_24hr": 0.0,
    "rain_2d": 0.0,
    "rain_3d": 0.0,
    "timestamp_rain": "2025-06-21T14:10:00+08:00",
    "weather": "多雲有雷",
    "visibility": "-99",
    "sunshine_duration": -99.0,
    "wind_dir": 260.0,
    "wind_speed": 4.2,
    "temperature": 31.0,
    "humidity": 71.0,
    "pressure": -99.0,
    "uv_index": -99,
    "peak_gust_speed": 8.5,
    "timestamp_now": "2025-06-21T14:00:00+08:00",
    "stationId": "CAD030"
  },
  {
    "stationName": "奇美國小",
    "lat": 23.496927,
    "lon": 121.445929,
    "rain_now": 0.0,
    "rain_10min": 0.0,
    "rain_1hr": 0.0,
    "rain_3hr": 0.0,
    "rain_6hr": 0.0,
    "rain_12hr": 0.0,
    "rain_24hr": 0.0,
    "rain_2d": 0.0,
    "rain_3d": 0.0,
    "timestamp_rain": "2025-06-21T14:10:00+08:00",
    "stationId": "O1T800"
  },
  {
    "stationName": "膽曼",
    "lat": 23.224869,
    "lon": 121.412806,
    "rain_now": 0.0,
    "rain_10min": 0.0,
    "rain_1hr": 0.0,
    "rain_3hr": 0.0,
    "rain_6hr": 0.0,
    "rain_12hr": 0.0,
    "rain_24hr": 0.0,
    "rain_2d": 0.0,
    "rain_3d": 0.0,
    "timestamp_rain": "2025-06-21T14:10:00+08:00",
    "stationId": "81S910"
  },